WOF_ID,NAME,ADM0NAME,ADM1NAME,LONGITUDE,LATITUDE,Smoke_days_light_point,Smoke_days_medium_point,Smoke_days_heavy_point,Smoke_days_undefined_point,Smoke_days_aggregate_point
85674971,Port Louis,Mauritius,,57.499994,-20.166639,0,0,0,0,0
85766533,Camaquã,Brazil,Rio Grande do Sul,-51.810001,-30.839631,0,0,0,0,0
85770743,Caboolture,Australia,Queensland,152.949982,-27.082961,0,0,0,0,0
85775745,Rockhampton,Australia,Queensland,150.520001,-23.363911,0,0,0,0,0
85776593,Cranbourne,Australia,Victoria,145.28337,-38.099601,0,0,0,0,0
85780185,Launceston,Australia,Tasmania,147.130182,-41.449836,0,0,0,0,0
85780241,Ballarat,Australia,Victoria,143.840047,-37.559582,0,0,0,0,0
85780403,Murray Bridge,Australia,South Australia,139.260016,-35.129601,0,0,0,0,0
85781899,Coffs Harbour,Australia,New South Wales,153.112297,-30.307053,0,0,0,0,0
85782783,Alice Springs,Australia,Northern Territory,133.880035,-23.700997,0,0,0,0,0
85796795,Frankfurt,Germany,Hessen,8.675015,50.099977,2,0,0,0,2
85834655,Gulfport,United States of America,Mississippi,-89.092764,30.367564,191,39,2,0,232
85883111,Córdoba,Mexico,Veracruz,-96.919986,18.920381,120,91,8,0,219
85883461,Tampico,Mexico,Tamaulipas,-97.870006,22.30002,146,95,6,0,247
85884875,Lagos de Moreno,Mexico,Jalisco,-101.929991,21.370413,153,29,2,0,184
85885271,Apatzingán,Mexico,Michoacán,-102.350017,19.079984,135,69,2,0,206
85899455,Selma,United States of America,Alabama,-87.021159,32.407568,168,47,4,0,219
85899527,Enterprise,United States of America,Alabama,-85.843996,31.327815,181,39,3,0,223
85899531,Dothan,United States of America,Alabama,-85.390587,31.223455,179,35,7,0,221
85901455,Paphos,Cyprus,Paphos,32.422457,34.755915,0,0,0,0,0
85901827,Arad,Romania,Arad,21.31998,46.17001,0,0,0,0,0
85902611,Simferopol,Russia,Crimea,34.098735,44.949154,0,0,0,0,0
85906273,Pécs,Hungary,Baranya,18.220014,46.080429,0,0,0,0,0
85906275,Szombathely,Hungary,Vas,16.628742,47.225346,0,0,0,0,0
85906277,Kaposvár,Hungary,Somogy,17.799988,46.367026,0,0,0,0,0
85913601,Huntsville,United States of America,Alabama,-86.609995,34.71996,133,52,8,0,193
85913749,Mobile,United States of America,Alabama,-88.049985,30.680025,183,42,2,0,227
85913825,Auburn,United States of America,Alabama,-85.48084,32.609701,162,49,3,0,214
85913947,Montgomery,United States of America,Alabama,-86.279189,32.361602,161,46,4,0,211
85914011,Florence,United States of America,Alabama,-87.677243,34.799696,128,59,8,0,195
85914359,Gadsden,United States of America,Alabama,-86.006647,34.01455,144,45,6,0,195
85914453,Tuscaloosa,United States of America,Alabama,-87.544176,33.225115,153,48,6,0,207
85914465,Birmingham,United States of America,Alabama,-86.824995,33.530006,152,46,6,0,204
85915489,Nome,United States of America,Alaska,-165.406374,64.5061,5,1,2,0,8
85915567,Cordova,United States of America,Alaska,-145.757496,60.542776,23,6,0,0,29
85915577,Palmer,United States of America,Alaska,-149.112692,61.599714,23,5,0,0,28
85915581,Wasilla,United States of America,Alaska,-149.439442,61.581731,20,5,0,0,25
85915585,Valdez,United States of America,Alaska,-146.348287,61.135996,26,6,0,0,32
85915613,Dillingham,United States of America,Alaska,-158.480312,59.05656,3,0,0,0,3
85915635,Fairbanks,United States of America,Alaska,-147.710659,64.836984,17,11,10,0,38
85915671,Kotzebue,United States of America,Alaska,-162.596598,66.898693,4,4,3,0,11
85915707,Anchorage,United States of America,Alaska,-149.900215,61.21997,18,5,0,0,23
85915729,Juneau,United States of America,Alaska,-134.419997,58.314127,39,14,6,0,59
85915739,Homer,United States of America,Alaska,-151.54828,59.642934,11,4,0,0,15
85915751,Kenai,United States of America,Alaska,-151.258013,60.554352,13,4,0,0,17
85915769,Seward,United States of America,Alaska,-149.469983,60.126161,15,5,0,0,20
85915867,Kodiak,United States of America,Alaska,-152.406987,57.789998,13,1,0,0,14
85915901,Bethel,United States of America,Alaska,-161.755796,60.793303,2,0,0,0,2
85916005,Hooper Bay,United States of America,Alaska,-166.096565,61.531088,0,0,0,0,0
85916051,Ketchikan,United States of America,Alaska,-131.66399,55.356219,45,15,4,0,64
85916059,Unalaska,United States of America,Alaska,-166.531603,53.868584,0,0,0,0,0
85916107,Sitka,United States of America,Alaska,-135.327549,57.060398,41,14,1,0,56
85916111,Wrangell,United States of America,Alaska,-132.371595,56.471268,42,17,4,0,63
85916159,Prudhoe Bay,United States of America,Alaska,-148.66936,70.292181,14,11,5,0,30
85916191,Talkeetna,United States of America,Alaska,-150.109427,62.323779,20,6,0,0,26
85917171,Douglas,United States of America,Arizona,-109.548363,31.35864,75,2,0,0,77
85917185,Tombstone,United States of America,Arizona,-110.066884,31.713141,68,2,0,0,70
85917189,Willcox,United States of America,Arizona,-109.831395,32.253211,73,0,0,0,73
85917235,Tucson,United States of America,Arizona,-110.891932,32.206943,63,0,0,0,63
85917269,Casa Grande,United States of America,Arizona,-111.756626,32.879374,54,0,0,0,54
85917319,Yuma,United States of America,Arizona,-114.623608,32.685278,45,0,0,0,45
85917325,Nogales,Mexico,Sonora,-110.944996,31.305,73,3,0,0,76
85917377,Prescott,United States of America,Arizona,-112.447772,34.590019,48,5,2,0,55
85917391,Safford,United States of America,Arizona,-109.70688,32.833821,72,2,0,0,74
85917401,Bullhead City,United States of America,Arizona,-114.567488,35.148176,38,0,0,0,38
85917409,Kingman,United States of America,Arizona,-114.052222,35.189879,36,0,0,0,36
85917415,Lake Havasu City,United States of America,Arizona,-114.308279,34.498294,35,0,0,0,35
85917421,Flagstaff,United States of America,Arizona,-111.650508,35.198096,47,3,3,0,53
85917479,Phoenix,United States of America,Arizona,-112.071938,33.541926,49,2,0,0,51
85917491,Mesa,United States of America,Arizona,-111.736084,33.423915,51,2,0,0,53
85917509,Glendale,United States of America,Arizona,-112.195824,33.581941,49,2,0,0,51
85917517,Gila Bend,United States of America,Arizona,-112.724655,32.950378,51,0,0,0,51
85918667,Grand Canyon,United States of America,Arizona,-112.138592,36.054788,45,9,2,0,56
85919609,Fayetteville,United States of America,Arkansas,-94.157209,36.062978,132,53,3,0,188
85920203,Jonesboro,United States of America,Arkansas,-90.704164,35.842578,117,81,5,0,203
85920359,Paragould,United States of America,Arkansas,-90.502884,36.057087,115,83,5,0,203
85920425,Conway,United States of America,Arkansas,-92.451318,35.091281,128,62,3,0,193
85920481,Hot Springs,United States of America,Arkansas,-93.055003,34.503952,131,60,3,0,194
85920639,Pine Bluff,United States of America,Arkansas,-92.003051,34.228698,122,69,4,0,195
85921265,Little Rock,United States of America,Arkansas,-92.331093,34.736083,123,67,4,0,194
85921431,Fort Smith,United States of America,Arkansas,-94.398357,35.386224,130,55,3,0,188
85921503,El Dorado,United States of America,Arkansas,-92.66252,33.213927,141,57,4,0,202
85921769,Santa Cruz,United States of America,California,-122.02639,36.971946,46,6,0,0,52
85921777,Santa Maria,United States of America,California,-120.436639,34.940127,41,0,0,0,41
85921779,Santa Barbara,United States of America,California,-119.71999,34.43499,39,0,0,0,39
85921827,Merced,United States of America,California,-120.481933,37.302618,45,3,0,0,48
85921881,Oakland,United States of America,California,-122.221103,37.768921,57,6,0,0,63
85921915,Berkeley,United States of America,California,-122.271152,37.873901,55,6,0,0,61
85921927,Crescent City,United States of America,California,-124.200492,41.756455,37,28,19,0,84
85921941,Yuba City,United States of America,California,-121.615766,39.141033,76,5,0,0,81
85922099,Bishop,United States of America,California,-118.394076,37.363958,32,0,0,0,32
85922227,San Diego,United States of America,California,-117.181936,32.82197,40,0,0,0,40
85922239,Oceanside,United States of America,California,-117.334968,33.220465,41,2,0,0,43
85922243,National City,United States of America,California,-117.098005,32.671945,42,0,0,0,42
85922295,San Luis Obispo,United States of America,California,-120.658589,35.283181,40,0,1,0,41
85922313,Paso Robles,United States of America,California,-120.689982,35.626597,42,0,1,0,43
85922347,San Jose,United States of America,California,-121.851935,37.301929,47,4,0,0,51
85922431,San Mateo,United States of America,California,-122.313062,37.556918,52,6,0,0,58
85922461,Visalia,United States of America,California,-119.316009,36.32503,38,3,0,0,41
85922465,Tulare,United States of America,California,-119.344121,36.207026,38,3,0,0,41
85922569,Ukiah,United States of America,California,-123.210862,39.154237,53,13,0,0,66
85922583,San Francisco,United States of America,California,-122.417169,37.769196,56,6,0,0,62
85922603,Salinas,United States of America,California,-121.641656,36.682217,44,3,0,0,47
85922611,Monterey,United States of America,California,-121.893578,36.600258,46,3,0,0,49
85922643,Vallejo,United States of America,California,-122.258052,38.111949,57,8,0,0,65
85922693,Santa Rosa,United States of America,California,-122.699989,38.450404,55,10,0,0,65
85922749,Eureka,United States of America,California,-124.147497,40.802224,42,19,14,0,75
85922777,Modesto,United States of America,California,-120.98999,37.655413,56,2,0,0,58
85922795,Arcata,United States of America,California,-124.088225,40.88519,43,17,16,0,76
85922813,El Centro,United States of America,California,-115.558048,32.792377,47,4,0,0,51
85922845,Sacramento,United States of America,California,-121.471984,38.576967,59,4,0,0,63
85922941,Mt. Shasta,United States of America,California,-122.309393,41.310358,57,17,2,0,76
85922995,Fresno,United States of America,California,-119.772984,36.747717,48,3,0,0,51
85923131,Irvine,United States of America,California,-117.82995,33.680411,40,0,0,0,40
85923179,Chico,United States of America,California,-121.836398,39.72862,67,9,0,0,76
85923299,Delano,United States of America,California,-119.243068,35.761937,39,3,0,0,42
85923307,Bakersfield,United States of America,California,-119.019981,35.369972,39,2,0,0,41
85923345,Riverside,United States of America,California,-117.398039,33.941945,37,0,1,0,38
85923357,Palm Springs,United States of America,California,-116.533053,33.777356,34,2,0,0,36
85923487,Pasadena,United States of America,California,-118.138872,34.160381,34,1,0,0,35
85923517,Los Angeles,United States of America,California,-118.181926,33.991924,36,0,0,0,36
85923525,Long Beach,United States of America,California,-118.158044,33.786967,38,0,0,0,38
85923859,Redding,United States of America,California,-122.390576,40.587043,60,13,3,0,76
85923877,Barstow,United States of America,California,-117.021886,34.899018,32,0,0,0,32
85923929,Needles,United States of America,California,-114.613351,34.848427,36,0,0,0,36
85923951,San Bernardino,United States of America,California,-117.30198,34.12233,37,0,1,0,38
85923967,Victorville,United States of America,California,-117.290319,34.536508,34,0,0,0,34
85928855,Lamar,United States of America,Colorado,-102.619406,38.086498,119,16,1,0,136
85928879,Denver,United States of America,Colorado,-104.985962,39.741134,86,9,2,0,97
85928901,Craig,United States of America,Colorado,-107.550397,40.51728,58,6,0,0,64
85928939,Durango,United States of America,Colorado,-107.879989,37.275643,51,3,0,0,54
85929071,Greeley,United States of America,Colorado,-104.739974,40.419198,92,10,2,0,104
85929187,Pueblo,United States of America,Colorado,-104.630007,38.280388,96,5,1,0,102
85929235,Aurora,United States of America,Colorado,-104.808497,39.695857,89,9,2,0,100
85929385,Montrose,United States of America,Colorado,-107.86552,38.477275,48,7,0,0,55
85929395,Glenwood Springs,United States of America,Colorado,-107.3247,39.54659,54,5,0,0,59
85929457,Colorado Springs,United States of America,Colorado,-104.791986,38.862963,91,5,2,0,98
85929549,Trinidad,United States of America,Colorado,-104.506397,37.171335,95,6,0,0,101
85929587,Grand Junction,United States of America,Colorado,-108.55,39.093853,43,7,0,0,50
85929659,Gunnison,United States of America,Colorado,-106.92829,38.544765,52,7,0,0,59
85929679,Fort Collins,United States of America,Colorado,-105.058869,40.560688,89,10,2,0,101
85929877,Boulder,United States of America,Colorado,-105.246093,40.038446,84,10,2,0,96
85930787,Stamford,United States of America,Connecticut,-73.539191,41.053346,102,50,12,0,164
85930811,Bridgeport,United States of America,Connecticut,-73.201907,41.181925,102,53,9,0,164
85930819,Hartford,United States of America,Connecticut,-72.681913,41.771966,103,50,9,0,162
85930865,New London,United States of America,Connecticut,-72.100028,41.355524,106,47,11,0,164
85930889,Waterbury,United States of America,Connecticut,-73.050022,41.550008,104,51,8,0,163
85930897,New Haven,United States of America,Connecticut,-72.900005,41.330383,103,52,9,0,164
85931481,Dover,United States of America,Delaware,-75.524703,39.158087,108,50,12,0,170
85931573,Wilmington,United States of America,Delaware,-75.546898,39.746268,112,46,12,0,170
85931779,"Washington,  D.C.",United States of America,District of Columbia,-77.011364,38.901495,119,44,12,0,175
85931789,Tampa,United States of America,Florida,-82.460567,27.948934,189,17,2,0,208
85931799,Naples,United States of America,Florida,-81.794992,26.142059,169,9,2,0,180
85931833,St. Petersburg,United States of America,Florida,-82.679383,27.770539,192,18,2,0,212
85931945,West Palm Beach,United States of America,Florida,-80.123621,26.74502,160,3,2,0,165
85932213,Gainesville,United States of America,Florida,-82.325037,29.65138,191,20,2,0,213
85932397,Fort Lauderdale,United States of America,Florida,-80.141786,26.136065,139,3,2,0,144
85932415,Coral Springs,United States of America,Florida,-80.270822,26.270837,154,2,2,0,158
85932433,Ocala,United States of America,Florida,-82.140268,29.187352,192,20,2,0,214
85932455,St. Augustine,United States of America,Florida,-81.314711,29.894879,186,17,3,0,206
85932493,Panama City,United States of America,Florida,-85.655273,30.15861,196,30,5,0,231
85932547,Jacksonville,United States of America,Florida,-81.671933,30.331967,189,17,3,0,209
85932595,Kissimmee,United States of America,Florida,-81.407781,28.292057,186,12,2,0,200
85932609,Ft. Myers,United States of America,Florida,-81.860492,26.640298,180,7,2,0,189
85932617,Cape Coral,United States of America,Florida,-81.979684,26.60291,183,7,2,0,192
85932697,Daytona Beach,United States of America,Florida,-81.023075,29.210554,178,16,2,0,196
85932709,Sarasota,United States of America,Florida,-82.530787,27.336121,196,12,2,0,210
85932725,Vero Beach,United States of America,Florida,-80.391124,27.642252,177,8,2,0,187
85932799,Crestview,United States of America,Florida,-86.572608,30.754207,190,41,5,0,236
85932821,Key West,United States of America,Florida,-81.782745,24.555231,129,9,2,0,140
85932833,Lake City,United States of America,Florida,-82.639747,30.189719,192,17,3,0,212
85932871,Titusville,United States of America,Florida,-80.807791,28.612348,179,13,2,0,194
85932939,Palatka,United States of America,Florida,-81.651306,29.647685,181,21,2,0,204
85932957,Melbourne,United States of America,Florida,-80.60832,28.08331,174,12,2,0,188
85933005,Pensacola,United States of America,Florida,-87.216935,30.421126,194,39,5,0,238
85933013,Palm Coast,United States of America,Florida,-81.223296,29.538002,180,18,2,0,200
85933091,Orlando,United States of America,Florida,-81.381976,28.511923,183,14,2,0,199
85933285,Fort Pierce,United States of America,Florida,-80.325805,27.446786,176,5,2,0,183
85933301,Winter Haven,United States of America,Florida,-81.733006,28.021919,189,14,2,0,205
85933373,Tallahassee,United States of America,Florida,-84.280034,30.449988,188,33,6,0,227
85933379,Apalachicola,United States of America,Florida,-84.992523,29.725613,188,29,5,0,222
85933441,Leesburg,United States of America,Florida,-81.883333,28.810501,182,19,2,0,203
85933643,Coral Gables,United States of America,Florida,-80.291079,25.715419,134,4,2,0,140
85933657,Homestead,United States of America,Florida,-80.477786,25.468302,129,6,2,0,137
85933669,Miami,United States of America,Florida,-80.226052,25.789557,127,4,2,0,133
85933671,Miami Beach,United States of America,Florida,-80.131781,25.80992,128,3,2,0,133
85934069,Port Charlotte,United States of America,Florida,-82.105697,27.000043,192,9,2,0,203
85935469,Spring Hill,United States of America,Florida,-82.547711,28.478945,186,19,2,0,207
85935991,Albany,United States of America,Georgia,-84.15583,31.57873,169,40,4,0,213
85936135,Marietta,United States of America,Georgia,-84.543248,33.955613,153,45,5,0,203
85936179,Waycross,United States of America,Georgia,-82.354906,31.213817,185,26,3,0,214
85936243,Columbus,United States of America,Georgia,-84.980017,32.470433,166,44,3,0,213
85936429,Atlanta,United States of America,Georgia,-84.401895,33.83196,154,46,4,0,204
85936481,Dublin,United States of America,Georgia,-82.918283,32.537457,165,36,4,0,205
85936513,Douglas,United States of America,Georgia,-82.85069,31.507778,176,30,4,0,210
85936517,Macon,United States of America,Georgia,-83.630048,32.850384,155,40,4,0,199
85936703,La Grange,United States of America,Georgia,-85.031875,33.036471,156,47,4,0,207
85936897,Dalton,United States of America,Georgia,-84.970302,34.769724,139,46,7,0,192
85936921,Valdosta,United States of America,Georgia,-83.278597,30.832858,191,26,3,0,220
85936939,Savannah,United States of America,Georgia,-81.109995,32.021106,178,29,4,0,211
85937005,Brunswick,United States of America,Georgia,-81.491652,31.149687,188,21,3,0,212
85937433,Kailua-Kona,United States of America,Hawaii,-155.983747,19.652365,1,0,0,0,1
85937449,Hilo,United States of America,Hawaii,-155.090027,19.699998,0,0,0,0,0
85937497,Lihue,United States of America,Hawaii,-159.371006,21.981512,0,0,0,0,0
85937547,Wahiawa,United States of America,Hawaii,-158.023621,21.503092,2,0,0,0,2
85937601,Honolulu,United States of America,Hawaii,-157.859944,21.308822,0,0,0,0,0
85937629,Wailuku,United States of America,Hawaii,-156.504721,20.891475,2,0,0,0,2
85937743,Lewiston,United States of America,Idaho,-117.016589,46.41661,81,20,7,0,108
85937773,Burley,United States of America,Idaho,-113.791876,42.535813,58,6,2,0,66
85937803,Montpelier,United States of America,Idaho,-111.296912,42.322622,54,7,0,0,61
85937881,Twin Falls,United States of America,Idaho,-114.460569,42.560954,60,6,2,0,68
85937923,Boise,United States of America,Idaho,-116.22749,43.60859,66,13,2,0,81
85937925,Pocatello,United States of America,Idaho,-112.444723,42.871348,60,7,2,0,69
85937963,Idaho Falls,United States of America,Idaho,-112.033301,43.466687,66,7,2,0,75
85938017,Caldwell,United States of America,Idaho,-116.670538,43.660964,68,9,6,0,83
85938133,Salmon,United States of America,Idaho,-113.894997,45.175678,69,16,3,0,88
85938163,Coeur d'Alene,United States of America,Idaho,-116.779446,47.678083,66,37,9,0,112
85938427,Quincy,United States of America,Illinois,-91.409728,39.935972,111,61,14,0,186
85938565,Urbana,United States of America,Illinois,-88.204188,40.109992,120,47,17,0,184
85938621,Waukegan,United States of America,Illinois,-87.844726,42.364041,100,60,19,0,179
85938709,Galesburg,United States of America,Illinois,-90.371084,40.947771,112,55,18,0,185
85939307,Carbondale,United States of America,Illinois,-89.22025,37.72683,121,60,10,0,191
85939457,Bloomington,United States of America,Illinois,-88.993597,40.484595,117,45,21,0,183
85939657,Rock Island,United States of America,Illinois,-90.534614,41.493396,109,55,22,0,186
85939801,Elgin,United States of America,Illinois,-88.289919,42.039461,100,60,19,0,179
85939829,Rockford,United States of America,Illinois,-89.06969,42.269705,99,61,21,0,181
85939977,Kankakee,United States of America,Illinois,-87.861108,41.12037,111,56,17,0,184
85940007,Peoria,United States of America,Illinois,-89.670041,40.699982,113,47,21,0,181
85940083,Decatur,United States of America,Illinois,-88.954736,39.840706,117,50,16,0,183
85940195,Chicago,United States of America,Illinois,-87.752001,41.831937,102,57,20,0,179
85940221,Aurora,United States of America,Illinois,-88.299996,41.765395,107,57,19,0,183
85940363,Alton,United States of America,Illinois,-90.184222,38.890997,123,50,15,0,188
85940429,Springfield,United States of America,Illinois,-89.650017,39.82001,116,55,13,0,184
85940583,Joliet,United States of America,Illinois,-88.106674,41.529983,102,58,19,0,179
85940691,Belleville,United States of America,Illinois,-90.000228,38.525154,123,52,13,0,188
85940857,Evanston,United States of America,Illinois,-87.699955,42.048349,101,57,19,0,177
85941371,Lafayette,United States of America,Indiana,-86.878248,40.417209,109,56,15,0,180
85941463,Muncie,United States of America,Indiana,-85.386375,40.19376,115,51,14,0,180
85941707,Marion,United States of America,Indiana,-85.659175,40.558337,112,53,15,0,180
85941713,Bloomington,United States of America,Indiana,-86.526409,39.165657,119,48,14,0,181
85941761,Kokomo,United States of America,Indiana,-86.133642,40.486765,107,59,14,0,180
85941813,Gary,United States of America,Indiana,-87.330003,41.580394,100,56,19,0,175
85941877,Richmond,United States of America,Indiana,-84.890281,39.828898,117,50,14,0,181
85941919,Terre Haute,United States of America,Indiana,-87.413874,39.466647,120,45,16,0,181
85942147,Evansville,United States of America,Indiana,-87.555829,37.974696,126,45,15,0,186
85942149,Fort Wayne,United States of America,Indiana,-85.129982,41.080398,107,50,18,0,175
85942259,Elkhart,United States of America,Indiana,-85.968794,41.682945,100,56,19,0,175
85942439,South Bend,United States of America,Indiana,-86.250017,41.683307,98,57,18,0,173
85942489,New Albany,United States of America,Indiana,-85.821284,38.310877,120,45,15,0,180
85942569,Indianapolis,United States of America,Indiana,-86.171994,39.751934,118,48,15,0,181
85943339,Ames,United States of America,Iowa,-93.619723,42.053853,114,59,15,0,188
85943513,Mason City,United States of America,Iowa,-93.200833,43.154018,100,67,15,0,182
85943555,Sioux City,United States of America,Iowa,-96.399992,42.500389,108,51,16,0,175
85943693,Spencer,United States of America,Iowa,-95.147175,43.145285,96,65,15,0,176
85943829,Dubuque,United States of America,Iowa,-90.664451,42.500932,105,58,19,0,182
85943935,Burlington,United States of America,Iowa,-91.11277,40.807934,111,54,19,0,184
85944061,Des Moines,United States of America,Iowa,-93.619981,41.57998,116,57,13,0,186
85944185,Iowa City,United States of America,Iowa,-91.529979,41.661086,104,62,19,0,185
85944193,Davenport,United States of America,Iowa,-90.58753,41.553987,110,55,22,0,187
85944253,Cedar Rapids,United States of America,Iowa,-91.660023,41.969982,111,61,18,0,190
85944293,Council Bluffs,United States of America,Iowa,-95.8608,41.262273,103,60,14,0,177
85944325,Waterloo,United States of America,Iowa,-92.342798,42.493154,105,62,18,0,185
85944435,Ft. Dodge,United States of America,Iowa,-94.180257,42.506823,110,59,15,0,184
85944671,Ottumwa,United States of America,Iowa,-92.414809,41.012883,109,63,12,0,184
85945171,Manhattan,United States of America,Kansas,-96.592435,39.194028,131,48,11,0,190
85945215,Dodge City,United States of America,Kansas,-100.018195,37.760058,134,26,2,0,162
85945225,Hays,United States of America,Kansas,-99.322191,38.87937,130,31,4,0,165
85945379,Hutchinson,United States of America,Kansas,-97.923491,38.065492,129,42,5,0,176
85945467,Topeka,United States of America,Kansas,-95.669985,39.050005,121,63,8,0,192
85945667,Goodland,United States of America,Kansas,-101.711037,39.348488,130,23,1,0,154
85945709,Lawrence,United States of America,Kansas,-95.25523,38.959752,117,64,7,0,188
85945871,Wichita,United States of America,Kansas,-97.329987,37.719983,131,45,4,0,180
85946119,Garden City,United States of America,Kansas,-100.864087,37.975213,131,24,1,0,156
85946183,Salina,United States of America,Kansas,-97.607179,38.82467,125,45,6,0,176
85946279,Emporia,United States of America,Kansas,-96.181375,38.404231,129,59,7,0,195
85946451,Coffeyville,United States of America,Kansas,-95.626318,37.038061,137,49,5,0,191
85946723,Owensboro,United States of America,Kentucky,-87.113324,37.774579,126,49,13,0,188
85946789,Frankfort,United States of America,Kentucky,-84.873357,38.200807,118,45,15,0,178
85946959,London,United States of America,Kentucky,-84.083354,37.128882,123,47,10,0,180
85946963,Hopkinsville,United States of America,Kentucky,-87.488624,36.865488,116,64,7,0,187
85947035,Madisonville,United States of America,Kentucky,-87.502215,37.332746,127,51,11,0,189
85947231,Covington,United States of America,Kentucky,-84.508599,39.084008,118,45,15,0,178
85947249,Paducah,United States of America,Kentucky,-88.600003,37.083717,120,63,8,0,191
85947335,Bowling Green,United States of America,Kentucky,-86.443649,36.9907,115,58,9,0,182
85947819,Shreveport,United States of America,Louisiana,-93.770023,32.500018,154,50,2,0,206
85948031,Slidell,United States of America,Louisiana,-89.781094,30.27496,193,41,2,0,236
85948111,New Orleans,United States of America,Louisiana,-90.041913,29.996948,200,46,2,0,248
85948165,Lake Charles,United States of America,Louisiana,-93.217189,30.226384,191,52,2,0,245
85948205,Baton Rouge,United States of America,Louisiana,-91.140158,30.457946,192,51,2,0,245
85948231,Monroe,United States of America,Louisiana,-92.119194,32.509604,134,67,3,0,204
85948343,Alexandria,United States of America,Louisiana,-92.445014,31.311098,162,55,4,0,221
85948377,Lafayette,United States of America,Louisiana,-92.019949,30.199977,197,52,2,0,251
85948403,Houma,United States of America,Louisiana,-90.719486,29.595931,207,50,2,0,259
85948451,New Iberia,United States of America,Louisiana,-91.818308,30.003581,200,53,2,0,255
85948743,Metairie,United States of America,Louisiana,-90.152777,29.983866,200,46,2,0,248
85948863,Augusta,United States of America,Maine,-69.779989,44.310563,100,45,9,0,154
85948869,Waterville,United States of America,Maine,-69.645785,44.551892,98,48,7,0,153
85948871,Calais,United States of America,Maine,-67.242392,45.165989,99,45,6,0,150
85948877,Portland,United States of America,Maine,-70.245527,43.672162,107,44,8,0,159
85948885,Lewiston,United States of America,Maine,-70.21526,44.100705,106,45,7,0,158
85948899,Bangor,United States of America,Maine,-68.778345,44.801153,100,45,7,0,152
85948901,Presque Isle,United States of America,Maine,-68.002165,46.793409,91,47,6,0,144
85949085,Bar Harbor,United States of America,Maine,-68.204375,44.387897,97,45,8,0,150
85949125,Houlton,United States of America,Maine,-67.83972,46.125517,95,47,7,0,149
85949165,Hagerstown,United States of America,Maryland,-77.72028,39.641649,114,43,14,0,171
85949233,Annapolis,United States of America,Maryland,-76.492499,38.97833,115,46,13,0,174
85949457,Cumberland,United States of America,Maryland,-78.762774,39.653173,113,42,14,0,169
85949461,Baltimore,United States of America,Maryland,-76.621931,39.301936,109,47,12,0,168
85949683,Kingstown,Saint Vincent and the Grenadines,,-61.212062,13.148279,0,0,0,0,0
85950325,Pittsfield,United States of America,Massachusetts,-73.259828,42.448196,106,49,8,0,163
85950327,Lowell,United States of America,Massachusetts,-71.316691,42.633688,104,43,12,0,159
85950361,Boston,United States of America,Massachusetts,-71.07196,42.331906,102,45,12,0,159
85950367,New Bedford,United States of America,Massachusetts,-70.944698,41.656125,103,47,12,0,162
85950375,Worcester,United States of America,Massachusetts,-71.800021,42.270429,105,47,9,0,161
85950393,Springfield,United States of America,Massachusetts,-72.579999,42.120025,109,47,6,0,162
85950403,Salem,United States of America,Massachusetts,-70.883092,42.522499,103,44,12,0,159
85950881,Traverse City,United States of America,Michigan,-85.622175,44.768442,83,56,28,0,167
85950925,Iron Mountain,United States of America,Michigan,-88.064093,45.82246,80,57,25,0,162
85950937,Alpena,United States of America,Michigan,-83.432696,45.061602,79,51,35,0,165
85950967,Sault Ste. Marie,United States of America,Michigan,-84.345276,46.495262,73,56,33,0,162
85950985,Kalamazoo,United States of America,Michigan,-85.58719,42.292159,95,59,17,0,171
85951083,Saginaw,United States of America,Michigan,-83.95083,43.41948,77,66,24,0,167
85951091,Detroit,United States of America,Michigan,-83.082002,42.331906,97,58,18,0,173
85951173,Muskegon,United States of America,Michigan,-86.248364,43.234582,89,57,25,0,171
85951249,Hancock,United States of America,Michigan,-88.580805,47.12729,71,62,28,0,161
85951273,Bay City,United States of America,Michigan,-83.888895,43.594457,79,63,25,0,167
85951281,Ironwood,United States of America,Michigan,-90.159391,46.455807,69,67,25,0,161
85951337,Grand Rapids,United States of America,Michigan,-85.669949,42.96372,92,60,22,0,174
85951375,Petoskey,United States of America,Michigan,-84.955187,45.373754,81,54,32,0,167
85951435,Battle Creek,United States of America,Michigan,-85.179747,42.321098,92,62,17,0,171
85951509,Escanaba,United States of America,Michigan,-87.06436,45.745695,81,53,29,0,163
85951561,Benton Harbor,United States of America,Michigan,-86.454191,42.11664,94,58,20,0,172
85951837,Cadillac,United States of America,Michigan,-85.413608,44.251212,86,57,26,0,169
85951849,Lansing,United States of America,Michigan,-84.546736,42.733527,86,63,20,0,169
85951859,Ann Arbor,United States of America,Michigan,-83.719991,42.300375,94,58,20,0,172
85951901,Marquette,United States of America,Michigan,-87.406588,46.546731,77,56,29,0,162
85951927,Flint,United States of America,Michigan,-83.687538,43.012864,80,67,22,0,169
85952003,Pontiac,United States of America,Michigan,-83.290224,42.651853,89,63,19,0,171
85952437,St. Cloud,United States of America,Minnesota,-94.162222,45.56121,83,61,25,0,169
85952675,Brainerd,United States of America,Minnesota,-94.20085,46.358009,78,60,28,0,166
85953191,St.  Paul,United States of America,Minnesota,-93.084975,44.943987,86,67,19,0,172
85953323,Willmar,United States of America,Minnesota,-95.043305,45.121883,87,58,25,0,170
85953345,Mankato,United States of America,Minnesota,-93.999157,44.163621,90,66,19,0,175
85953505,Rochester,United States of America,Minnesota,-92.469689,44.022053,93,65,17,0,175
85968309,International Falls,United States of America,Minnesota,-93.410846,48.601128,54,69,31,0,154
85968417,Crookston,United States of America,Minnesota,-96.607731,47.773762,66,57,34,0,157
85968439,Virginia,United States of America,Minnesota,-92.536404,47.523674,63,68,26,0,157
85968479,Lakeville,United States of America,Minnesota,-93.24251,44.650103,89,64,20,0,173
85968515,Ely,United States of America,Minnesota,-91.825698,47.900421,62,65,30,0,157
85968517,Duluth,United States of America,Minnesota,-92.106378,46.783332,69,68,23,0,160
85968795,Faribault,United States of America,Minnesota,-93.268013,44.290487,88,67,19,0,174
85968949,Bemidji,United States of America,Minnesota,-94.880188,47.473574,66,62,31,0,159
85968953,Winona,United States of America,Minnesota,-91.639197,44.050424,91,68,17,0,176
85968969,Moorhead,United States of America,Minnesota,-96.742193,46.874308,72,58,31,0,161
85969077,Albert Lea,United States of America,Minnesota,-93.368704,43.647787,99,65,17,0,181
85969169,Minneapolis,United States of America,Minnesota,-93.253732,44.981925,85,65,21,0,171
85969517,Meridian,United States of America,Mississippi,-88.703614,32.364186,165,48,3,0,216
85969693,Jackson,United States of America,Mississippi,-90.184997,32.298815,154,56,1,0,211
85969769,Tupelo,United States of America,Mississippi,-88.70333,34.257921,133,58,7,0,198
85969781,Southaven,United States of America,Mississippi,-90.003458,34.968911,122,74,4,0,200
85969833,Greenville,United States of America,Mississippi,-91.061688,33.410375,124,72,5,0,201
85969861,Biloxi,United States of America,Mississippi,-88.885309,30.395805,191,37,3,0,231
85969915,Vicksburg,United States of America,Mississippi,-90.877745,32.352481,141,69,2,0,212
85969939,Hattiesburg,United States of America,Mississippi,-89.290245,31.327273,176,44,1,0,221
85969973,Natchez,United States of America,Mississippi,-91.387507,31.554804,162,58,1,0,221
85969987,Laurel,United States of America,Mississippi,-89.139273,31.697379,174,47,1,0,222
85970425,Columbia,United States of America,Missouri,-92.33391,38.952079,121,58,13,0,192
85970647,Jefferson City,United States of America,Missouri,-92.173325,38.576623,119,58,13,0,190
85970739,Kansas City,United States of America,Missouri,-94.60604,39.109034,116,67,8,0,191
85970783,St. Joseph,United States of America,Missouri,-94.846392,39.769031,108,65,11,0,184
85970893,Joplin,United States of America,Missouri,-94.513079,37.084596,129,56,4,0,189
85971343,St. Louis,United States of America,Missouri,-90.241926,38.636964,128,49,16,0,193
85971363,Springfield,United States of America,Missouri,-93.319999,37.180016,128,57,7,0,192
85971449,Independence,United States of America,Missouri,-94.415281,39.091114,117,64,9,0,190
85971691,Cape Girardeau,United States of America,Illinois,-89.518087,37.305822,127,64,8,0,199
85971749,Poplar Bluff,United States of America,Missouri,-90.402684,36.760197,118,73,6,0,197
85971823,Kirksville,United States of America,Missouri,-92.582809,40.193682,113,59,12,0,184
85972039,St. Charles,United States of America,Missouri,-90.506166,38.784285,125,50,16,0,191
85972647,Bozeman,United States of America,Montana,-111.037833,45.680092,73,22,5,0,100
85972673,Havre,United States of America,Montana,-109.677683,48.54524,72,35,29,0,136
85972691,Miles City,United States of America,Montana,-105.839984,46.408884,81,40,15,0,136
85972703,Missoula,United States of America,Montana,-113.993053,46.872241,76,26,8,0,110
85972711,Helena,United States of America,Montana,-112.035291,46.592749,69,30,5,0,104
85972719,Polson,United States of America,Montana,-114.156686,47.688005,69,32,13,0,114
85972749,Hardin,United States of America,Montana,-107.612486,45.731768,81,35,11,0,127
85972753,Dillon,United States of America,Montana,-112.683985,45.215676,63,20,5,0,88
85972763,Great Falls,United States of America,Montana,-111.299987,47.500291,72,40,13,0,125
85972773,Kalispell,United States of America,Montana,-114.315979,48.197767,76,32,14,0,122
85972825,Glendive,United States of America,Montana,-104.710493,47.108583,72,48,23,0,143
85972901,Glasgow,United States of America,Montana,-106.635259,48.18397,65,52,23,0,140
85972929,Billings,United States of America,Montana,-108.54,45.788302,79,33,7,0,119
85973483,Omaha,United States of America,Nebraska,-96.00999,41.240001,104,57,16,0,177
85973527,Kearney,United States of America,Nebraska,-99.081146,40.700706,123,35,11,0,169
85973555,Lincoln,United States of America,Nebraska,-96.680001,40.819975,115,49,14,0,178
85973623,Chadron,United States of America,Nebraska,-103.003077,42.827914,109,26,11,0,146
85973867,Alliance,United States of America,Nebraska,-102.870192,42.101395,117,24,5,0,146
85973941,Grand Island,United States of America,Nebraska,-98.357986,40.922268,126,36,14,0,176
85973955,North Platte,United States of America,Nebraska,-100.770501,41.136286,123,25,10,0,158
85974197,Scottsbluff,United States of America,Nebraska,-103.660686,41.867508,116,18,4,0,138
85974221,Norfolk,United States of America,Nebraska,-97.433598,42.028712,107,52,15,0,174
85974397,Sidney,United States of America,Nebraska,-102.978273,41.1398,124,18,3,0,145
85974495,McCook,United States of America,Nebraska,-100.626168,40.205594,129,27,4,0,160
85974771,Ely,United States of America,Nevada,-114.887675,39.247022,31,0,0,0,31
85974779,Reno,United States of America,Nevada,-119.82001,39.529976,50,2,0,0,52
85974785,Elko,United States of America,Nevada,-115.761989,40.832506,47,0,0,0,47
85974793,Carson City,United States of America,Nevada,-119.766395,39.163849,47,4,0,0,51
85974797,Winnemucca,United States of America,Nevada,-117.734685,40.973376,53,2,0,0,55
85974801,Las Vegas,United States of America,Nevada,-115.221952,36.211944,28,2,0,0,30
85974805,Boulder City,United States of America,Nevada,-114.83158,35.978953,33,1,0,0,34
85974973,Tonopah,United States of America,Nevada,-117.228979,38.06699,32,0,0,0,32
85975075,Concord,United States of America,New Hampshire,-71.538047,43.208072,105,47,8,0,160
85975081,Manchester,United States of America,New Hampshire,-71.455287,42.995992,105,47,8,0,160
85975279,Newark,United States of America,New Jersey,-74.170005,40.700421,98,54,13,0,165
85975315,Atlantic City,United States of America,New Jersey,-74.423323,39.364637,110,48,14,0,172
85975481,Paterson,United States of America,New Jersey,-74.170005,40.919995,99,51,13,0,163
85975811,Trenton,United States of America,New Jersey,-74.743355,40.216963,109,48,12,0,169
85976507,Raton,United States of America,New Mexico,-104.439889,36.897398,95,6,0,0,101
85976517,Tucumcari,United States of America,New Mexico,-103.725514,35.169803,110,10,0,0,120
85976529,Alamogordo,United States of America,New Mexico,-105.959719,32.899476,102,1,0,0,103
85976543,Hobbs,United States of America,New Mexico,-103.140614,32.712614,130,6,0,0,136
85976585,Truth or Consequences,United States of America,New Mexico,-107.252896,33.133596,88,3,0,0,91
85976609,Roswell,United States of America,New Mexico,-104.522468,33.394537,116,4,0,0,120
85976623,Clovis,United States of America,New Mexico,-103.204771,34.405069,120,8,0,0,128
85976635,Las Cruces,United States of America,New Mexico,-106.777808,32.312613,94,1,0,0,95
85976655,Deming,United States of America,New Mexico,-107.755785,32.261092,82,0,0,0,82
85976665,Carlsbad,United States of America,New Mexico,-104.2283,32.420565,123,3,0,0,126
85976671,Farmington,United States of America,New Mexico,-108.186094,36.754151,53,2,0,0,55
85976677,Socorro,United States of America,New Mexico,-106.89899,34.062119,93,2,0,0,95
85976683,Las Vegas,United States of America,New Mexico,-105.222503,35.597012,94,3,0,0,97
85976697,Santa Fe,United States of America,New Mexico,-105.937239,35.686929,81,2,0,0,83
85976713,Albuquerque,United States of America,New Mexico,-106.641331,35.104975,79,0,0,0,79
85976727,Gallup,United States of America,New Mexico,-108.733994,35.524071,56,1,0,0,57
85977075,Los Alamos,United States of America,New Mexico,-106.297708,35.891103,78,2,0,0,80
85977537,Elmira,United States of America,New York,-76.808036,42.09013,101,52,13,0,166
85977539,New York,United States of America,New York,-73.981963,40.751925,100,52,13,0,165
85977591,Rochester,United States of America,New York,-77.621896,43.172372,97,50,18,0,165
85977785,Syracuse,United States of America,New York,-76.150014,43.049994,97,50,16,0,163
85977835,Poughkeepsie,United States of America,New York,-73.921416,41.700231,108,46,10,0,164
85977841,Schenectady,United States of America,New York,-73.939968,42.814582,102,53,9,0,164
85977919,Saratoga Springs,United States of America,New York,-73.785016,43.082963,101,53,9,0,163
85977967,Albany,United States of America,New York,-73.819949,42.670017,104,51,9,0,164
85977971,Binghamton,United States of America,New York,-75.918322,42.099018,104,52,11,0,167
85977989,Plattsburgh,United States of America,New York,-73.457982,44.694984,92,55,12,0,159
85978023,Buffalo,United States of America,New York,-78.881948,42.881924,104,47,20,0,171
85978073,Watertown,United States of America,New York,-75.911062,43.975157,89,56,18,0,163
85978353,Utica,United States of America,New York,-75.233067,43.101179,94,54,14,0,162
85978779,Ithaca,United States of America,New York,-76.496943,42.440574,101,52,13,0,166
85978825,Jamestown,United States of America,New York,-79.235536,42.097365,105,46,18,0,169
85980237,Salisbury,United States of America,North Carolina,-80.474478,35.67078,142,43,2,0,187
85980391,Greensboro,United States of America,North Carolina,-79.800023,36.070006,143,40,5,0,188
85980449,Hickory,United States of America,North Carolina,-81.341402,35.733489,141,42,4,0,187
85980455,Rocky Mount,United States of America,North Carolina,-77.790766,35.937999,142,37,9,0,188
85980565,Durham,United States of America,North Carolina,-78.92,35.999959,144,37,9,0,190
85980569,Raleigh,United States of America,North Carolina,-78.644693,35.818781,148,39,8,0,195
85980585,Greenville,United States of America,North Carolina,-77.366684,35.612877,142,34,9,0,185
85980603,Goldsboro,United States of America,North Carolina,-77.993054,35.385139,149,33,7,0,189
85980683,Wilmington,United States of America,North Carolina,-77.94502,34.225519,159,28,7,0,194
85980715,Winston-Salem,United States of America,North Carolina,-80.259995,36.105431,141,42,4,0,187
85981171,Asheville,United States of America,North Carolina,-82.554145,35.601198,139,40,5,0,184
85981189,Lumberton,United States of America,North Carolina,-79.011906,34.6272,153,39,3,0,195
85981241,Kitty Hawk,United States of America,North Carolina,-75.704718,36.077319,137,35,11,0,183
85981263,Jacksonville,United States of America,North Carolina,-77.430556,34.754324,151,31,9,0,191
85981333,Charlotte,United States of America,North Carolina,-80.831984,35.20694,144,44,2,0,190
85981411,Fayetteville,United States of America,North Carolina,-78.883594,35.062936,156,36,7,0,199
85982177,Fargo,United States of America,North Dakota,-96.789426,46.877228,72,58,31,0,161
85982323,Grand Forks,United States of America,North Dakota,-97.032486,47.925278,66,59,34,0,159
85982371,Devils Lake,United States of America,North Dakota,-98.859687,48.112217,62,61,33,0,156
85982521,Dickinson,United States of America,North Dakota,-102.788801,46.883997,78,44,27,0,149
85982541,Minot,United States of America,North Dakota,-101.295817,48.232494,65,52,34,0,151
85982569,Jamestown,United States of America,North Dakota,-98.702978,46.906012,70,52,34,0,156
85982611,Williston,United States of America,North Dakota,-103.628001,48.156788,69,50,30,0,149
85982651,Bismarck,United States of America,North Dakota,-100.783316,46.808317,73,48,28,0,149
85982959,Springfield,United States of America,Ohio,-83.799986,39.920004,116,45,16,0,177
101712003,Lima,United States of America,Ohio,-84.105265,40.742874,112,45,18,0,175
101712039,Toledo,United States of America,Ohio,-83.579974,41.670026,107,48,20,0,175
101712161,Dayton,United States of America,Ohio,-84.201933,39.752322,120,45,17,0,182
101712203,Cincinnati,United States of America,Ohio,-84.458869,39.163831,118,46,14,0,178
101712287,Mansfield,United States of America,Ohio,-82.515542,40.758325,114,42,17,0,173
101712381,Columbus,United States of America,Ohio,-82.991956,39.98192,116,41,19,0,176
101712497,Youngstown,United States of America,Ohio,-80.649739,41.099699,116,40,19,0,175
101712563,Cleveland,United States of America,Ohio,-81.696944,41.471933,108,45,19,0,172
101712719,Zanesville,United States of America,Ohio,-82.013325,39.940287,120,37,18,0,175
101712743,Lancaster,United States of America,Ohio,-82.605304,39.719215,119,37,18,0,174
101713197,Bowling Green,United States of America,Ohio,-83.65139,41.374747,106,49,19,0,174
101713301,Canton,United States of America,Ohio,-81.378635,40.798865,115,39,18,0,172
101713359,Akron,United States of America,Ohio,-81.519996,41.070399,112,41,18,0,171
101714287,Tulsa,United States of America,Oklahoma,-95.930021,36.120003,139,47,4,0,190
101714359,Stillwater,United States of America,Oklahoma,-97.068298,36.135351,141,44,3,0,188
101714461,Oklahoma City,United States of America,Oklahoma,-97.520629,35.471989,141,41,2,0,184
101714549,Ponca City,United States of America,Oklahoma,-97.085273,36.707358,143,41,5,0,189
101714727,Norman,United States of America,Oklahoma,-97.344146,35.227913,143,40,2,0,185
101714741,Ardmore,United States of America,Oklahoma,-97.129405,34.181078,146,36,2,0,184
101714775,Bartlesville,United States of America,Oklahoma,-95.980586,36.7472,136,51,3,0,190
101714777,Woodward,United States of America,Oklahoma,-99.39769,36.433421,133,24,5,0,162
101714821,Lawton,United States of America,Oklahoma,-98.409973,34.599037,137,36,2,0,175
101714905,Enid,United States of America,Oklahoma,-97.878093,36.395542,137,41,3,0,181
101715009,Guymon,United States of America,Oklahoma,-101.479501,36.685809,129,14,3,0,146
101715019,Shawnee,United States of America,Oklahoma,-96.933784,35.34279,140,42,2,0,184
101715369,McAlester,United States of America,Oklahoma,-95.765974,34.932996,140,45,2,0,187
101715429,Muskogee,United States of America,Oklahoma,-95.369435,35.748217,133,51,2,0,186
101715747,Astoria,United States of America,Oregon,-123.829997,46.188381,67,10,5,0,82
101715773,Roseburg,United States of America,Oregon,-123.356099,43.218433,55,22,13,0,90
101715803,La Grande,United States of America,Oregon,-118.086601,45.324687,76,17,6,0,99
101715829,Portland,United States of America,Oregon,-122.681936,45.52197,69,14,8,0,91
101715853,Corvallis,United States of America,Oregon,-123.279979,44.572356,63,11,13,0,87
101715855,Albany,United States of America,Oregon,-123.086942,44.620492,65,11,13,0,89
101715907,Klamath Falls,United States of America,Oregon,-121.780536,42.225005,65,16,3,0,84
101715925,Tillamook,United States of America,Oregon,-123.842503,45.455247,62,15,6,0,83
101715947,Medford,United States of America,Oregon,-122.874423,42.326627,52,17,17,0,86
101716005,Coos Bay,United States of America,Oregon,-124.216589,43.366615,61,17,15,0,93
101716033,Bend,United States of America,Oregon,-121.309996,44.071921,56,26,13,0,95
101716039,Grants Pass,United States of America,Oregon,-123.327186,42.43954,46,21,19,0,86
101716049,Salem,United States of America,Oregon,-123.023897,44.92807,63,13,12,0,88
101716151,John Day,United States of America,Oregon,-118.952026,44.416525,78,15,3,0,96
101716197,Pendleton,United States of America,Oregon,-118.787489,45.672599,75,22,7,0,104
101716235,Ontario,United States of America,Oregon,-116.96189,44.026627,72,10,6,0,88
101716251,Springfield,United States of America,Oregon,-122.978034,44.051948,69,13,14,0,96
101716261,Eugene,United States of America,Oregon,-123.100016,44.05001,71,12,13,0,96
101716595,Altoona,United States of America,Pennsylvania,-78.394967,40.518598,111,40,17,0,168
101716809,Williamsport,United States of America,Pennsylvania,-77.001383,41.241086,101,54,11,0,166
101716955,Wilkes-Barre,United States of America,Pennsylvania,-75.877937,41.249044,105,49,11,0,165
101717279,York,United States of America,Pennsylvania,-76.72804,39.962921,111,48,12,0,171
101717693,Harrisburg,United States of America,Pennsylvania,-76.884749,40.2736,107,50,12,0,169
101717809,Johnstown,United States of America,Pennsylvania,-78.922222,40.327085,114,40,17,0,171
101717925,Allentown,United States of America,Pennsylvania,-75.500028,40.599988,108,45,12,0,165
101718083,Philadelphia,United States of America,Pennsylvania,-75.171942,40.001919,109,49,12,0,170
101718127,State College,United States of America,Pennsylvania,-77.860245,40.793723,112,41,15,0,168
101718253,Erie,United States of America,Pennsylvania,-80.084993,42.129921,100,52,17,0,169
101718305,Scranton,United States of America,Pennsylvania,-75.662679,41.409293,111,46,10,0,167
101718399,Beaver Falls,United States of America,Pennsylvania,-80.319423,40.751943,117,39,19,0,175
101718643,Lancaster,United States of America,Pennsylvania,-76.305766,40.037775,108,48,12,0,168
101718805,Pittsburgh,United States of America,Pennsylvania,-80.001931,40.431945,118,38,20,0,176
101720567,Providence,United States of America,Rhode Island,-71.416926,41.823048,107,44,12,0,163
101720579,Newport,United States of America,Rhode Island,-71.313358,41.490399,104,51,9,0,164
101720677,Myrtle Beach,United States of America,South Carolina,-78.886978,33.688911,159,32,3,0,194
101720693,Beaufort,United States of America,South Carolina,-80.689504,32.432166,167,30,6,0,203
101720747,Charleston,United States of America,South Carolina,-79.992105,32.792377,157,33,4,0,194
101720793,Columbia,United States of America,South Carolina,-80.899982,34.039975,154,37,3,0,194
101720807,Anderson,United States of America,South Carolina,-82.650263,34.503745,143,41,5,0,189
101720859,Orangeburg,United States of America,South Carolina,-80.862233,33.496804,160,35,3,0,198
101720973,Sumter,United States of America,South Carolina,-80.341722,33.920654,162,34,3,0,199
101721075,Greenville,United States of America,South Carolina,-82.394155,34.852923,145,40,5,0,190
101721103,Rock Hill,United States of America,South Carolina,-81.03,34.940385,143,43,3,0,189
101721115,Florence,United States of America,South Carolina,-79.762791,34.195676,149,37,3,0,189
101721155,Aiken,United States of America,South Carolina,-81.720604,33.549463,158,40,3,0,201
101721215,Spartanburg,United States of America,South Carolina,-81.932271,34.949429,145,40,5,0,190
101721597,Mitchell,United States of America,South Dakota,-98.026198,43.714294,91,48,22,0,161
101721605,Rapid City,United States of America,South Dakota,-103.230557,44.080551,98,35,17,0,150
101721629,Mobridge,United States of America,South Dakota,-100.434707,45.540126,87,39,28,0,154
101721649,Pierre,United States of America,South Dakota,-100.350552,44.368337,94,43,19,0,156
101721739,Yankton,United States of America,South Dakota,-97.39249,42.88202,104,46,19,0,169
101721785,Sioux Falls,United States of America,South Dakota,-96.729998,43.549989,100,47,22,0,169
101721911,Brookings,United States of America,South Dakota,-96.78803,44.306765,94,51,23,0,168
101722039,Lead,United States of America,South Dakota,-103.76577,44.350845,98,34,15,0,147
101722223,Aberdeen,United States of America,South Dakota,-98.486402,45.465118,82,46,32,0,160
101722567,Oak Ridge,United States of America,Tennessee,-84.269725,36.010656,131,44,10,0,185
101722645,Memphis,United States of America,Tennessee,-90.001941,35.121933,121,75,4,0,200
101722655,Barlett,United States of America,Tennessee,-89.84109,35.2229,119,76,4,0,199
101722757,Johnson City,United States of America,Tennessee,-82.353614,36.313325,135,40,6,0,181
101722759,Clarksville,United States of America,Tennessee,-87.359433,36.530082,121,58,7,0,186
101722769,Jackson,United States of America,Tennessee,-88.813892,35.614866,123,67,7,0,197
101722787,Kingsport,United States of America,Tennessee,-82.561948,36.548323,130,42,9,0,181
101722865,Knoxville,United States of America,Tennessee,-83.92003,35.970012,135,42,8,0,185
101723043,Chattanooga,United States of America,Tennessee,-85.250001,35.06999,136,46,9,0,191
101723081,Columbia,United States of America,Tennessee,-87.035267,35.614995,127,56,7,0,190
101723111,Murfreesboro,United States of America,Tennessee,-86.390267,35.845963,127,50,8,0,185
101723183,Nashville,United States of America,Tennessee,-86.781931,36.17192,126,54,8,0,188
101723433,Waco,United States of America,Texas,-97.146381,31.549171,150,37,2,0,189
101723551,McAllen,United States of America,Texas,-98.229725,26.203038,186,53,0,0,239
101723563,Edinburg,United States of America,Texas,-98.159962,26.303187,189,52,0,0,241
101723637,Beeville,United States of America,Texas,-97.75084,28.405978,182,41,0,0,223
101723717,Eagle Pass,United States of America,Texas,-100.489277,28.711024,166,21,0,0,187
101723771,Alice,United States of America,Texas,-98.070485,27.750463,190,38,0,0,228
101723793,Fort Stockton,United States of America,Texas,-102.884997,30.891692,131,7,0,0,138
101723901,Tyler,United States of America,Texas,-95.300783,32.351086,148,49,3,0,200
101723951,Pecos,United States of America,Texas,-103.499895,31.415794,125,7,0,0,132
101723957,Midland,United States of America,Texas,-102.0975,32.030718,135,9,0,0,144
101723959,Odessa,United States of America,Texas,-102.367225,31.845561,134,9,0,0,143
101723961,San Angelo,United States of America,Texas,-100.436697,31.464008,150,15,2,0,167
101723963,Hereford,United States of America,Texas,-102.398592,34.821917,124,9,2,0,135
101724051,Bay City,United States of America,Texas,-95.96436,28.981111,190,47,0,0,237
101724091,Childress,United States of America,Texas,-100.21392,34.424887,143,15,2,0,160
101724103,Amarillo,United States of America,Texas,-101.829997,35.22998,129,12,2,0,143
101724139,Abilene,United States of America,Texas,-99.732786,32.448625,151,19,1,0,171
101724157,Brownsville,United States of America,Texas,-97.500003,25.91998,185,62,0,0,247
101724171,Harlingen,United States of America,Texas,-97.690198,26.19756,184,58,0,0,242
101724185,Nacogdoches,United States of America,Texas,-94.655267,31.603742,160,50,2,0,212
101724205,Kingsville,United States of America,Texas,-97.855846,27.515955,189,45,0,0,234
101724261,Galveston,United States of America,Texas,-94.79748,29.301143,197,49,0,0,246
101724307,Del Rio,United States of America,Texas,-100.896384,29.362948,158,19,0,0,177
101724325,Corpus Christi,United States of America,Texas,-97.401895,27.742814,186,50,0,0,236
101724385,Dallas,United States of America,Texas,-96.841963,32.82197,148,43,2,0,193
101724403,Lufkin,United States of America,Texas,-94.72888,31.338435,159,50,2,0,211
101724431,Denton,United States of America,Texas,-97.128837,33.215762,142,44,2,0,188
101724443,Ft.  Worth,United States of America,Texas,-97.340038,32.739977,154,33,2,0,189
101724497,Huntsville,United States of America,Texas,-95.550587,30.723769,159,45,6,0,210
101724567,Port Lavaca,United States of America,Texas,-96.629694,28.616017,188,46,0,0,234
101724573,San Marcos,United States of America,Texas,-97.941113,29.883071,160,33,0,0,193
101724577,Austin,United States of America,Texas,-97.744724,30.268896,158,34,1,0,193
101724621,Van Horn,United States of America,Texas,-104.832242,31.042484,120,2,0,0,122
101724649,New Braunfels,United States of America,Texas,-98.126321,29.697811,164,30,0,0,194
101724653,San Antonio,United States of America,Texas,-98.509251,29.489279,167,29,0,0,196
101724763,Brownwood,United States of America,Texas,-98.982315,31.707895,142,26,1,0,169
101724773,Dalhart,United States of America,Texas,-102.518611,36.060808,119,12,2,0,133
101724811,Baytown,United States of America,Texas,-94.967728,29.755844,178,53,0,0,231
101724827,Texas City,United States of America,Texas,-94.962767,29.410878,192,50,0,0,242
101724833,Victoria,United States of America,Texas,-97.00334,28.804998,180,44,0,0,224
101724863,El Paso,United States of America,Texas,-106.511941,31.78193,99,1,0,0,100
101724989,Beaumont,United States of America,Texas,-94.101683,30.086263,179,53,2,0,234
101725015,Cleburne,United States of America,Texas,-97.39249,32.351525,147,37,2,0,186
101725053,Sherman,United States of America,Texas,-96.608584,33.635995,145,45,2,0,192
101725143,Port Arthur,United States of America,Texas,-93.928593,29.898988,188,51,2,0,241
101725157,Freeport,United States of America,Texas,-95.356878,28.959484,199,48,0,0,247
101725219,Alpine,United States of America,Texas,-103.665001,30.360717,121,7,0,0,128
101725261,Lubbock,United States of America,Texas,-101.879968,33.580003,129,8,2,0,139
101725325,Wichita Falls,United States of America,Texas,-98.493069,33.913626,134,33,2,0,169
101725403,Killeen,United States of America,Texas,-97.727482,31.117285,151,34,1,0,186
101725429,Temple,United States of America,Texas,-97.363008,31.102093,153,37,1,0,191
101725545,Big Spring,United States of America,Texas,-101.475186,32.243186,139,9,2,0,150
101725629,Houston,United States of America,Texas,-95.341925,29.82192,179,50,1,0,230
101725633,Conroe,United States of America,Texas,-95.455864,30.312063,165,47,2,0,214
101725657,Vernon,United States of America,Texas,-99.290384,34.151054,140,23,1,0,164
101725721,Falfurrias,United States of America,Texas,-98.144899,27.226903,191,43,0,0,234
101725835,Dumas,United States of America,Texas,-101.966888,35.862396,124,13,2,0,139
101725975,Longview,United States of America,Texas,-94.740274,32.500534,151,50,3,0,204
101725999,Bryan,United States of America,Texas,-96.369684,30.674186,159,40,2,0,201
101726105,Pasadena,United States of America,Texas,-95.147743,29.660863,178,51,0,0,229
101727533,Kanab,United States of America,Utah,-112.525494,37.047389,36,0,0,0,36
101727579,Logan,United States of America,Utah,-111.833598,41.73594,49,7,0,0,56
101727617,St. George,United States of America,Utah,-113.583336,37.104155,35,0,0,0,35
101727655,Price,United States of America,Utah,-110.810017,39.599791,41,4,0,0,45
101727673,Nephi,United States of America,Utah,-111.835484,39.710275,36,6,0,0,42
101727681,Parowan,United States of America,Utah,-112.827207,37.842534,33,1,0,0,34
101727685,Cedar City,United States of America,Utah,-113.061094,37.677428,33,0,0,0,33
101727823,Moab,United States of America,Utah,-109.54919,38.573704,37,3,0,0,40
101727863,Provo,United States of America,Utah,-111.63777,40.248899,44,5,0,0,49
101727933,Vernal,United States of America,Utah,-109.528002,40.455398,47,5,0,0,52
101727983,Monticello,United States of America,Utah,-109.3422,37.871783,37,3,0,0,40
101727989,Richfield,United States of America,Utah,-112.083298,38.772477,36,1,2,0,39
101728033,Ogden,United States of America,Utah,-111.968034,41.232379,44,5,0,0,49
101728075,Salt Lake City,United States of America,Utah,-111.931998,40.776962,43,5,0,0,48
101728319,Burlington,United States of America,Vermont,-73.212467,44.475798,96,54,10,0,160
101728353,Montpelier,United States of America,Vermont,-72.575813,44.259972,97,52,10,0,159
101728535,Charlottesville,United States of America,Virginia,-78.476926,38.029189,126,43,12,0,181
101728581,Alexandria,United States of America,Virginia,-77.099982,38.820433,119,43,13,0,175
101728609,Harrisonburg,United States of America,Virginia,-78.869176,38.449422,120,39,15,0,174
101728661,Hampton,United States of America,Virginia,-76.34995,37.030025,128,41,12,0,181
101728675,Richmond,United States of America,Virginia,-77.451932,37.551965,131,38,12,0,181
101728699,Fredericksburg,United States of America,Virginia,-77.460786,38.303513,124,39,13,0,176
101728705,Blacksburg,United States of America,Virginia,-80.414198,37.229419,124,43,9,0,176
101728745,Virginia Beach,United States of America,Virginia,-75.980265,36.85516,131,42,11,0,184
101728747,Roanoke,United States of America,Virginia,-79.941617,37.271199,123,43,9,0,175
101728769,Norfolk,United States of America,Virginia,-76.280006,36.849959,132,39,12,0,183
101728959,Petersburg,United States of America,Virginia,-77.402237,37.227765,133,37,12,0,182
101728985,Danville,United States of America,Virginia,-79.39532,36.586254,141,39,8,0,188
101729021,Lynchburg,United States of America,Virginia,-79.142467,37.413619,131,38,13,0,182
101729033,Winchester,United States of America,Virginia,-78.166635,39.178731,119,43,13,0,175
101729883,Everett,United States of America,Washington,-122.199968,47.960418,56,25,11,0,92
101729963,Yakima,United States of America,Washington,-120.504697,46.602232,68,19,11,0,98
101729987,Kennewick,United States of America,Washington,-119.136098,46.211377,70,24,7,0,101
101729991,Richland,United States of America,Washington,-119.291101,46.291811,69,24,8,0,101
101730021,Spokane,United States of America,Washington,-117.419949,47.669996,61,39,9,0,109
101730071,Vancouver,United States of America,Washington,-122.639993,45.630301,68,15,8,0,91
101730107,Aberdeen,United States of America,Washington,-123.814391,46.974896,60,13,6,0,79
101730113,Wenatchee,United States of America,Washington,-120.309024,47.423629,65,24,10,0,99
101730153,Bellingham,United States of America,Washington,-122.486927,48.760136,63,24,11,0,98
101730179,Centralia,United States of America,Washington,-122.952971,46.716411,63,13,7,0,83
101730217,Walla Walla,United States of America,Washington,-118.341883,46.065159,83,20,7,0,110
101730275,Tacoma,United States of America,Washington,-122.515013,47.211316,64,16,11,0,91
101730317,Longview,United States of America,Washington,-122.936951,46.13872,68,12,8,0,88
101730335,Olympia,United States of America,Washington,-122.899434,47.038045,67,13,10,0,90
101730401,Seattle,United States of America,Washington,-122.341931,47.571948,55,25,11,0,91
101730469,Bremerton,United States of America,Washington,-122.642018,47.573596,62,18,11,0,91
101731295,Wheeling,United States of America,West Virginia,-80.721078,40.06431,116,42,16,0,174
101731553,Huntington,United States of America,West Virginia,-82.445288,38.419579,116,45,18,0,179
101731567,White Sulphur Springs,United States of America,West Virginia,-80.303481,37.79388,118,45,11,0,174
101731623,Clarksburg,United States of America,West Virginia,-80.336916,39.283273,110,45,15,0,170
101731665,Beckley,United States of America,West Virginia,-81.183014,37.780186,120,48,13,0,181
101731687,Parkersburg,United States of America,West Virginia,-81.561647,39.266659,113,46,14,0,173
101731747,Morgantown,United States of America,West Virginia,-79.95606,39.629815,112,41,18,0,171
101731793,Charleston,United States of America,West Virginia,-81.632728,38.349738,118,44,17,0,179
101732325,Racine,United States of America,Wisconsin,-87.811834,42.727714,99,58,20,0,177
101732327,Superior,United States of America,Wisconsin,-92.103898,46.721243,70,69,22,0,161
101732335,Tomah,United States of America,Wisconsin,-90.503892,43.985053,84,67,20,0,171
101732365,Green Bay,United States of America,Wisconsin,-88.000014,44.529981,83,56,27,0,166
101732375,Eau Claire,United States of America,Wisconsin,-91.498353,44.811359,83,71,17,0,171
101732417,Appleton,United States of America,Wisconsin,-88.400506,44.268679,86,54,28,0,168
101732523,Wausau,United States of America,Wisconsin,-89.629992,44.959154,80,59,24,0,163
101732651,La Crosse,United States of America,Wisconsin,-91.239429,43.801369,97,59,19,0,175
101732721,Madison,United States of America,Wisconsin,-89.401117,43.073016,96,63,19,0,178
101732837,Janesville,United States of America,Wisconsin,-89.021579,42.682626,95,63,20,0,178
101732987,Milwaukee,United States of America,Wisconsin,-87.921913,43.054601,93,60,22,0,175
101732991,West Bend,United States of America,Wisconsin,-88.183336,43.425707,91,58,24,0,173
101733125,Fond du Lac,United States of America,Wisconsin,-88.446912,43.773438,93,51,27,0,171
101733311,Rhinelander,United States of America,Wisconsin,-89.412072,45.639913,77,62,24,0,163
101733337,Marinette,United States of America,Wisconsin,-87.630476,45.100385,83,54,27,0,164
101733397,Sheboygan,United States of America,Wisconsin,-87.714424,43.75083,87,54,28,0,169
101733459,Oshkosh,United States of America,Wisconsin,-88.542513,44.025102,91,51,27,0,169
101733483,Waukesha,United States of America,Wisconsin,-88.231369,43.01165,96,59,21,0,176
101733917,Cody,United States of America,Wyoming,-109.057101,44.523211,80,17,2,0,99
101733923,Powell,United States of America,Wyoming,-108.758437,44.758675,84,19,3,0,106
101733981,Douglas,United States of America,Wyoming,-105.384534,42.756472,91,18,6,0,115
101733997,Laramie,United States of America,Wyoming,-105.590568,41.311366,87,10,2,0,99
101734003,Green River,United States of America,Wyoming,-109.464983,41.514558,55,6,0,0,61
101734031,Casper,United States of America,Wyoming,-106.312488,42.86662,90,13,5,0,108
101734045,Thermopolis,United States of America,Wyoming,-108.214672,43.645978,78,12,2,0,92
101734077,Gillette,United States of America,Wyoming,-105.50525,44.283174,84,28,10,0,122
101734107,Rawlins,United States of America,Wyoming,-107.234292,41.790665,72,11,0,0,83
101734121,Cheyenne,United States of America,Wyoming,-104.819711,41.140007,92,13,2,0,107
101734127,Riverton,United States of America,Wyoming,-108.395048,43.02816,74,9,2,0,85
101734131,Lander,United States of America,Wyoming,-108.732599,42.833004,72,9,2,0,83
101734459,Pago Pago,American Samoa,,-170.706645,-14.276611,0,0,0,0,0
101734549,Agana,Guam,,144.750017,13.470016,0,0,0,0,0
101734697,Churchill,Canada,Manitoba,-94.165994,58.765985,54,58,39,0,151
101734709,Flin Flon,Canada,Manitoba,-101.883301,54.766591,31,50,66,0,147
101734715,The Pas,Canada,Manitoba,-101.233315,53.816623,38,51,57,0,146
101734753,Dauphin,Canada,Manitoba,-100.04995,51.150016,47,61,45,0,153
101734805,Gimli,Canada,Manitoba,-96.999981,50.633303,51,63,38,0,152
101734917,Selkirk,Canada,Manitoba,-96.883322,50.150026,55,61,37,0,153
101734959,Winnipeg,Canada,Manitoba,-97.165992,49.882988,54,65,36,0,155
101734971,Brandon,Canada,Manitoba,-99.949982,49.833275,53,66,35,0,154
101735029,Steinbach,Canada,Manitoba,-96.683308,49.517093,55,61,38,0,154
101735139,Thompson,Canada,Manitoba,-97.866621,55.749942,42,52,54,0,148
101735187,Saint John,Canada,New Brunswick,-66.076675,45.267042,97,43,8,0,148
101735269,Fredericton,Canada,New Brunswick,-66.633308,45.949998,94,47,5,0,146
101735369,Moncton,Canada,New Brunswick,-64.766678,46.083349,97,37,9,0,143
101735391,Fort McPherson,Canada,Northwest Territories,-134.894981,67.491525,33,20,23,0,76
101735407,Inuvik,Canada,Northwest Territories,-133.699989,68.349974,34,22,21,0,77
101735409,Norman Wells,Canada,Northwest Territories,-126.849968,65.283727,49,23,42,0,114
101735429,Yellowknife,Canada,Northwest Territories,-114.396981,62.442014,31,44,84,0,159
101735445,Iqaluit,Canada,Nunavut,-68.500192,63.750459,85,18,8,0,111
101735457,Rankin Inlet,Canada,Nunavut,-92.09532,62.816668,59,56,27,0,142
101735463,Pangnirtung,Canada,Nunavut,-65.750028,66.133313,86,12,4,0,102
101735475,Kugluktuk,Canada,Nunavut,-115.12535,67.798663,51,33,37,0,121
101735481,Naujaat,Canada,Nunavut,-86.282935,66.529467,82,27,11,0,120
101735485,Gjoa Haven,Canada,Nunavut,-95.916662,68.63329,57,33,17,0,107
101735491,Timmins,Canada,Ontario,-81.333315,48.466588,62,55,40,0,157
101735493,Sudbury,Canada,Ontario,-80.966645,46.49999,63,61,32,0,156
101735513,Thessalon,Canada,Ontario,-83.550001,46.249979,74,58,32,0,164
101735527,Barrie,Canada,Ontario,-79.700004,44.383762,84,59,21,0,164
101735545,Parry Sound,Canada,Ontario,-80.033007,45.333704,71,63,26,0,160
101735565,Cornwall,Canada,Ontario,-74.73333,45.017057,79,62,17,0,158
101735591,Thunder Bay,Canada,Ontario,-89.274975,48.44615,61,72,29,0,162
101735601,Kingston,Canada,Ontario,-76.483301,44.23372,90,55,19,0,164
101735607,Pembroke,Canada,Québec,-77.116647,45.850262,69,68,21,0,158
101735619,Kapuskasing,Canada,Ontario,-82.433325,49.416685,60,66,32,0,158
101735693,Hearst,Canada,Ontario,-83.666583,49.700492,56,67,33,0,156
101735713,Marathon,Canada,Ontario,-86.366651,48.750395,65,62,33,0,160
101735747,Peterborough,Canada,Ontario,-78.333265,44.299969,89,56,20,0,165
101735749,North Bay,Canada,Ontario,-79.449993,46.300002,68,61,29,0,158
101735809,London,Canada,Ontario,-81.249987,42.969999,92,55,21,0,168
101735831,Brockville,Canada,Ontario,-75.695313,44.58928,79,64,18,0,161
101735835,Toronto,Canada,Ontario,-79.421967,43.701926,94,52,20,0,166
101735855,Windsor,Canada,Ontario,-83.036853,42.315457,97,58,18,0,173
101735859,Orillia,Canada,Ontario,-79.416662,44.599977,83,58,22,0,163
101735873,Ottawa,Canada,Ontario,-75.701961,45.418643,70,70,17,0,157
101735989,Kitchener,Canada,Ontario,-80.500007,43.449995,88,60,19,0,167
101735997,Oshawa,Canada,Ontario,-78.849978,43.879995,91,54,20,0,165
101736007,Sarnia,Canada,Ontario,-82.399968,42.96664,84,67,19,0,170
101736123,Owen Sound,Canada,Ontario,-80.849985,44.566645,74,62,27,0,163
101736289,Niagara Falls,United States of America,New York,-79.036943,43.094823,104,47,20,0,171
101736379,Orangeville,Canada,Ontario,-80.08334,43.917073,84,62,20,0,166
101736505,Amos,Canada,Québec,-78.116664,48.566634,54,66,34,0,154
101736545,Montréal,Canada,Québec,-73.585243,45.501945,80,64,12,0,156
101736615,Joliette,Canada,Québec,-73.433306,46.033326,71,69,14,0,154
101736689,St-Augustin,Canada,Québec,-58.646999,51.24231,87,32,10,0,129
101736701,Drummondville,Canada,Québec,-72.483364,45.883335,75,69,9,0,153
101736797,St.-Jerome,Canada,Québec,-73.99999,45.76665,75,67,13,0,155
101736865,Victoriaville,Canada,Québec,-71.966677,46.050405,73,69,8,0,150
101736943,Rouyn-Noranda,Canada,Québec,-79.033249,48.250012,60,68,29,0,157
101737009,Dolbeau,Canada,Québec,-72.233328,48.86659,64,58,25,0,147
101737059,Shawinigan,Canada,Québec,-72.733323,46.550374,67,70,13,0,150
101737479,Baie-Comeau,Canada,Québec,-68.157995,49.222666,76,47,14,0,137
101737491,Québec,Canada,Québec,-71.24561,46.839969,68,71,8,0,147
101737559,La Sarre,Canada,Québec,-79.200034,48.800005,58,64,35,0,157
101738009,Gaspé,Canada,Québec,-64.493361,48.837315,77,38,17,0,132
101738021,Trois-Rivières,Canada,Québec,-72.549949,46.349973,67,72,11,0,150
101738179,Matagami,Canada,Québec,-77.633282,49.750386,49,67,34,0,150
101738289,Sherbrooke,Canada,Québec,-71.899989,45.400005,87,61,8,0,156
101738897,Cap-Chat,Canada,Québec,-66.683305,49.09996,78,44,13,0,135
101739461,Hudson Bay,Canada,Saskatchewan,-102.383296,52.850429,37,57,54,0,148
101739595,Biggar,Canada,Saskatchewan,-107.98329,52.0504,44,57,51,0,152
101739869,Melville,Canada,Saskatchewan,-102.799989,50.933311,50,52,50,0,152
101739889,Swift Current,Canada,Saskatchewan,-107.766611,50.283738,62,54,34,0,150
101739893,North Battleford,Canada,Saskatchewan,-108.283349,52.766636,44,54,57,0,155
101739901,Meadow Lake,Canada,Saskatchewan,-108.434736,54.130118,38,55,62,0,155
101739917,Regina,Canada,Saskatchewan,-104.61701,50.450033,45,61,44,0,150
101739949,Moose Jaw,Canada,Saskatchewan,-105.550002,50.399984,47,63,40,0,150
101739959,La Ronge,Canada,Saskatchewan,-105.300017,55.100008,26,56,68,0,150
101739971,Kindersley,Canada,Saskatchewan,-109.133298,51.466974,51,55,45,0,151
101739997,Prince Albert,Canada,Saskatchewan,-105.74999,53.20002,35,56,60,0,151
101740001,Weyburn,Canada,Saskatchewan,-103.850003,49.666567,54,60,35,0,149
101740011,Yorkton,Canada,Saskatchewan,-102.466547,51.217066,49,50,53,0,152
101740015,Saskatoon,Canada,Saskatchewan,-106.669985,52.170031,44,56,53,0,153
101740697,Whitehorse,Canada,Yukon,-135.049984,60.716719,46,20,9,0,75
101740795,Tofino,Canada,British Columbia,-125.862125,49.098616,55,21,7,0,83
101740817,Prince George,Canada,British Columbia,-122.766652,53.916669,34,39,50,0,123
101740855,Burns Lake,Canada,British Columbia,-125.766598,54.217012,32,31,44,0,107
101740873,Fort St. John,Canada,British Columbia,-120.833281,56.249989,27,50,73,0,150
101740879,Victoria,Canada,British Columbia,-123.350001,48.433283,63,19,10,0,92
101740899,Smithers,Canada,British Columbia,-127.16659,54.766591,39,32,31,0,102
101740903,Dawson Creek,Canada,British Columbia,-120.233266,55.766969,33,53,65,0,151
101740917,Creston,Canada,British Columbia,-116.516697,49.09996,63,32,20,0,115
101740921,Penticton,Canada,British Columbia,-119.58328,49.500375,53,36,25,0,114
101740955,Terrace,Canada,British Columbia,-128.583325,54.499993,47,32,11,0,90
101740957,Williams Lake,Canada,British Columbia,-122.149997,52.11665,45,29,40,0,114
101740961,Abbotsford,Canada,British Columbia,-122.299987,49.050377,59,29,13,0,101
101740981,Powell River,Canada,British Columbia,-124.549979,49.883711,55,27,10,0,92
101741001,Cranbrook,Canada,British Columbia,-115.766665,49.516679,60,39,23,0,122
101741011,Nanaimo,Canada,British Columbia,-123.934291,49.14602,59,20,10,0,89
101741017,Courtenay,Canada,British Columbia,-124.999978,49.683336,60,23,7,0,90
101741019,Campbell River,Canada,British Columbia,-125.249988,50.017088,58,24,11,0,93
101741029,Nelson,Canada,British Columbia,-117.283291,49.483658,61,28,22,0,111
101741037,Revelstoke,Canada,British Columbia,-118.18334,51.000465,48,36,30,0,114
101741047,Kamloops,Canada,British Columbia,-120.333286,50.666661,44,38,27,0,109
101741075,Vancouver,Canada,British Columbia,-123.12359,49.275362,59,26,10,0,95
101741099,Prince Rupert,Canada,British Columbia,-130.329988,54.31667,45,21,4,0,70
101741107,Quesnel,Canada,British Columbia,-122.483284,52.983677,38,36,42,0,116
101741131,Kelowna,Canada,British Columbia,-119.483312,49.899989,45,35,28,0,108
101741309,Yarmouth,Canada,Nova Scotia,-66.112581,43.830795,98,45,9,0,152
101748059,Klagenfurt,Austria,Kärnten,14.31002,46.620344,0,0,0,0,0
101748061,Innsbruck,Austria,Tirol,11.409991,47.280407,2,0,0,0,2
101748071,Linz,Austria,Oberösterreich,14.288781,48.319233,0,0,0,0,0
101748073,Vienna,Austria,Wien,16.364693,48.201961,0,0,0,0,0
101748075,Charleroi,Belgium,Charleroi,4.450002,50.420397,3,0,0,0,3
101748077,Namur,Belgium,Namur,4.870028,50.470394,3,0,0,0,3
101748079,Mons,Belgium,Hainaut,3.939004,50.445999,3,0,0,0,3
101748083,Liège,Belgium,Liege,5.580011,50.629996,3,0,0,0,3
101748093,Gent,Belgium,East Flanders,3.700022,51.029998,3,0,0,0,3
101748097,Brugge,Belgium,Brugge,3.230025,51.220374,3,0,0,0,3
101748099,Antwerpen,Belgium,Antwerp,4.413071,51.222319,3,0,0,0,3
101748103,České Budějovice,Czechia,Jihoceský,14.460037,48.980019,0,0,0,0,0
101748109,Brno,Czechia,Kraj Vysocina,16.609983,49.200394,0,0,0,0,0
101748111,Pizen,Czechia,Karlovarský,13.360001,49.740438,0,0,0,0,0
101748113,Prague,Czechia,Prague,14.464034,50.085283,0,0,0,0,0
101748115,Pardubice,Czechia,Královéhradecký,15.760009,50.04042,0,0,0,0,0
101748125,Ostrava,Czechia,Moravskoslezský,18.249987,49.830355,0,0,0,0,0
101748129,Olomouc,Czechia,Moravskoslezský,17.249996,49.630031,0,0,0,0,0
101748133,Hradec Králové,Czechia,Královéhradecký,15.812002,50.205996,0,0,0,0,0
101748139,Usti Nad Labem,Czechia,Liberecký,14.081005,50.662998,0,0,0,0,0
101748147,Liberec,Czechia,Liberecký,15.079999,50.79996,0,0,0,0,0
101748149,Pärnu,Estonia,Pärnu,24.513584,58.374743,0,0,0,0,0
101748151,Tartu,Estonia,Tartu,26.709884,58.383942,0,0,0,0,0
101748153,Tallinn,Estonia,Harju,24.728041,59.433877,0,0,0,0,0
101748155,Narva,Estonia,Ida-Viru,28.160286,59.377628,0,0,0,0,0
101748157,Kohtla-Järve,Estonia,Ida-Viru,27.283337,59.399978,0,0,0,0,0
101748161,Las Palmas,Spain,,-15.429999,28.099976,7,0,0,0,7
101748165,Santa Cruz de Tenerife,Spain,,-16.250001,28.469979,11,0,0,0,11
101748167,Melilla,Spain,Melilla,-2.950011,35.300002,5,0,0,0,5
101748173,Cádiz,Spain,Andalucía,-6.225005,36.534991,8,2,0,0,10
101748183,Algeciras,Spain,Andalucía,-5.46653,36.126712,7,2,0,0,9
101748185,Málaga,Spain,Andalucía,-4.419999,36.720406,6,1,0,0,7
101748187,Marbella,Spain,Andalucía,-4.88333,36.51662,5,2,0,0,7
101748193,Almería,Spain,Andalucía,-2.429992,36.830348,5,0,0,0,5
101748197,Granada‎,Spain,Andalucía,-3.585011,37.164978,6,0,0,0,6
101748199,Murcia,Spain,Región de Murcia,-1.129968,37.979993,4,0,0,0,4
101748201,Lorca,Spain,Región de Murcia,-1.698512,37.688564,5,0,0,0,5
101748203,Cartagena,Spain,Región de Murcia,-0.980028,37.60043,3,0,0,0,3
101748211,Alicante,Spain,Comunidad Valenciana,-0.483641,38.35122,3,0,0,0,3
101748219,Linares,Spain,Andalucía,-3.633355,38.08332,4,2,0,0,6
101748221,Jaén,Spain,Andalucía,-3.799985,37.770394,5,2,0,0,7
101748225,Seville,Spain,Andalucía,-5.980007,37.405015,8,2,0,0,10
101748229,Huelva,Spain,Andalucía,-6.929949,37.250374,8,1,1,0,10
101748233,Córdoba,Spain,Andalucía,-4.770004,37.879999,7,2,0,0,9
101748235,Albacete,Spain,Castilla-La Mancha,-1.87,39.000344,5,0,0,0,5
101748237,Palma,Spain,Islas Baleares,2.654246,39.574263,2,0,0,0,2
101748241,Valencia,Spain,Comunidad Valenciana,-0.401958,39.486963,3,0,0,0,3
101748251,Badajoz,Spain,Extremadura,-6.969973,38.880429,13,1,1,0,15
101748253,Mérida,Spain,Extremadura,-6.337998,38.912004,12,1,1,0,14
101748255,Castello,Spain,Comunidad Valenciana,-0.050008,39.970414,3,0,0,0,3
101748259,Toledo,Spain,Castilla-La Mancha,-4.016716,39.867036,6,1,1,0,8
101748269,Tarragona,Spain,Cataluña,1.249991,41.12037,3,0,0,0,3
101748283,Madrid,Spain,Comunidad de Madrid,-3.685298,40.401972,7,1,1,0,9
101748305,Guadalajara,Spain,Castilla-La Mancha,-3.166587,40.633707,7,1,1,0,9
101748313,Mataró,Spain,Cataluña,2.450021,41.539957,2,0,0,0,2
101748323,Barcelona,Spain,Cataluña,2.181425,41.385245,2,0,0,0,2
101748353,Salamanca,Spain,Castilla y León,-5.67,40.970405,12,2,1,0,15
101748361,Zaragoza,Spain,Aragón,-0.889982,41.650002,4,0,0,0,4
101748363,Valladolid,Spain,Castilla y León,-4.750031,41.650002,9,2,1,0,12
101748365,Logroño,Spain,La Rioja,-2.429992,42.470365,7,2,0,0,9
101748369,Pamplona,Spain,Comunidad Foral de Navarra,-1.649987,42.820008,7,1,0,0,8
101748371,Vitoria,Spain,País Vasco,-2.669977,42.84998,10,2,0,0,12
101748377,San Sebastián,Spain,País Vasco,-1.979993,43.320391,8,2,0,0,10
101748383,Ourense,Spain,Galicia,-7.869995,42.32996,26,3,1,0,30
101748385,Bilbao,Spain,País Vasco,-2.929987,43.249982,10,2,0,0,12
101748389,León,Spain,Castilla y León,-5.570007,42.579971,16,3,0,0,19
101748391,Santander,Spain,Cantabria,-3.799985,43.380465,13,2,0,0,15
101748395,Vigo,Spain,Galicia,-8.729995,42.220019,28,3,2,0,33
101748401,Gijón,Spain,Principado de Asturias,-5.67,43.530016,19,4,0,0,23
101748403,Oviedo,Spain,Principado de Asturias,-5.829991,43.350492,18,4,0,0,22
101748409,La Coruña,Spain,Galicia,-8.419988,43.329977,25,5,2,0,32
101748413,Santiago de Compostela,Spain,Galicia,-8.541091,42.882898,25,5,2,0,32
101748417,Helsinki,Finland,Southern Finland,24.932181,60.177509,0,0,0,0,0
101748421,Turku,Finland,Finland Proper,22.254962,60.453867,0,0,0,0,0
101748425,Lahti,Finland,Päijänne Tavastia,25.664934,60.99386,0,0,0,0,0
101748427,Pori,Finland,Satakunta,21.774939,61.478895,0,0,0,0,0
101748431,Tampere,Finland,Pirkanmaa,23.750013,61.500005,0,0,0,0,0
101748433,Lappeenranta,Finland,South Karelia,28.183334,61.067059,0,0,0,0,0
101748435,Jyväskylä,Finland,Central Finland,25.749994,62.260346,0,0,0,0,0
101748437,Vaasa,Finland,Western Finland,21.600015,63.099984,0,0,0,0,0
101748439,Kuopio,Finland,Eastern Finland,27.69494,62.894286,0,0,0,0,0
101748441,Joensuu,Finland,North Karelia,29.766648,62.599989,0,0,0,0,0
101748443,Oulu,Finland,Northern Ostrobothnia,25.470011,64.999998,0,0,0,0,0
101748445,Geneva,Switzerland,Genève,6.140028,46.210008,2,0,0,0,2
101748449,Lausanne,Switzerland,Vaud,6.650023,46.530427,2,0,0,0,2
101748451,Luzern,Switzerland,Lucerne,8.280001,47.050421,2,0,0,0,2
101748453,Bern,Switzerland,Bern,7.466976,46.916683,2,0,0,0,2
101748455,Biel,Switzerland,Bern,7.250038,47.16659,2,0,0,0,2
101748457,Saint Gallen,Switzerland,Sankt Gallen,9.361999,47.422998,2,0,0,0,2
101748463,Zürich,Switzerland,Zürich,8.548064,47.381934,2,0,0,0,2
101748471,Rosenheim,Germany,Bayern,12.133306,47.850347,2,0,0,0,2
101748479,Munich,Germany,Bayern,11.573048,48.131888,2,0,0,0,2
101748481,Augsburg,Germany,Bayern,10.899996,48.350006,2,0,0,0,2
101748485,Ulm,Germany,Baden-Württemberg,9.999999,48.400391,2,0,0,0,2
101748495,Passau,Germany,Bayern,13.441179,48.575462,0,0,0,0,0
101748525,Regensburg,Germany,Bayern,12.120025,49.020405,2,0,0,0,2
101748527,Karlsruhe,Germany,Baden-Württemberg,8.399993,48.999992,2,0,0,0,2
101748543,Nürnberg,Germany,Bayern,11.079985,49.449991,2,0,0,0,2
101748545,Fürth,Germany,Bayern,10.99999,49.470015,2,0,0,0,2
101748549,Mannheim,Germany,Baden-Württemberg,8.470015,49.500375,2,0,0,0,2
101748557,Würzburg,Germany,Bayern,9.950028,49.800434,2,0,0,0,2
101748579,Wiesbaden,Germany,Hessen,8.250028,50.080392,2,0,0,0,2
101748601,Chemnitz,Germany,Sachsen,12.919976,50.829984,0,0,0,0,0
101748611,Gera,Germany,Thüringen,12.070002,50.870369,1,0,0,0,1
101748613,Jena,Germany,Thüringen,11.580006,50.930443,2,0,0,0,2
101748625,Erfurt,Germany,Thüringen,11.029962,50.970053,2,0,0,0,2
101748657,Wuppertal,Germany,Nordrhein-Westfalen,7.169991,51.25001,3,0,0,0,3
101748659,Kassel,Germany,Hessen,9.50003,51.300007,2,0,0,0,2
101748671,Düsseldorf,Germany,Nordrhein-Westfalen,6.779989,51.220374,3,0,0,0,3
101748685,Leipzig,Germany,Sachsen,12.409981,51.335405,1,0,0,0,1
101748709,Essen,Germany,Nordrhein-Westfalen,7.016615,51.449998,3,0,0,0,3
101748713,Duisburg,Germany,Nordrhein-Westfalen,6.750017,51.429973,3,0,0,0,3
101748719,Dortmund,Germany,Nordrhein-Westfalen,7.450026,51.529967,2,0,0,0,2
101748721,Göttingen,Germany,Niedersachsen,9.920004,51.520433,2,0,0,0,2
101748763,Cottbus,Germany,Brandenburg,14.329967,51.770418,0,0,0,0,0
101748781,Magdeburg,Germany,Sachsen-Anhalt,11.620004,52.130421,2,0,0,0,2
101748795,Osnabrück,Germany,Niedersachsen,8.049989,52.280438,2,0,0,0,2
101748799,Berlin,Germany,Berlin,13.399603,52.523765,0,0,0,0,0
101748819,Hanover,Germany,Niedersachsen,9.716657,52.36697,2,0,0,0,2
101748835,Oldenburg,Germany,Niedersachsen,8.220004,53.129999,2,0,0,0,2
101748839,Emden,Germany,Niedersachsen,7.216655,53.366677,2,0,0,0,2
101748841,Hamburg,Germany,Hamburg,9.998053,53.551971,2,0,0,0,2
101748845,Bremerhaven,Germany,Bremen,8.579983,53.550438,2,0,0,0,2
101748851,Schwerin,Germany,Mecklenburg-Vorpommern,11.416699,53.633304,2,0,0,0,2
101748855,Lübeck,Germany,Schleswig-Holstein,10.669984,53.870393,2,0,0,0,2
101748865,Rostock,Germany,Mecklenburg-Vorpommern,12.149997,54.070381,1,0,0,0,1
101748867,Stralsund,Germany,Mecklenburg-Vorpommern,13.100017,54.300418,0,0,0,0,0
101748869,Kiel,Germany,Schleswig-Holstein,10.130017,54.33039,2,0,0,0,2
101748877,Kyustendil,Bulgaria,Kyustendil,22.691111,42.284278,0,0,0,0,0
101748881,Khaskovo,Bulgaria,Haskovo,25.563287,41.943782,0,0,0,0,0
101748885,Pernik,Bulgaria,Pernik,23.022719,42.609995,0,0,0,0,0
101748887,Sofia,Bulgaria,Grad Sofiya,23.314708,42.685295,0,0,0,0,0
101748889,Plovdiv,Bulgaria,Plovdiv,24.753982,42.153976,0,0,0,0,0
101748895,Stara Zagora,Bulgaria,Stara Zagora,25.622715,42.423133,0,0,0,0,0
101748903,Sliven,Bulgaria,Sliven,26.33001,42.67937,0,0,0,0,0
101748905,Burgas,Bulgaria,Burgas,27.474643,42.5146,0,0,0,0,0
101748907,Vratsa,Bulgaria,Vratsa,23.562531,43.209984,0,0,0,0,0
101748909,Montana,Bulgaria,Montana,23.237002,43.414002,0,0,0,0,0
101748913,Pleven,Bulgaria,Pleven,24.613371,43.423769,0,0,0,0,0
101748919,Varna,Bulgaria,Varna,27.895289,43.215643,0,0,0,0,0
101748921,Shumen,Bulgaria,Shumen,26.929353,43.270006,0,0,0,0,0
101748923,Ruse,Bulgaria,Ruse,25.973339,43.853691,0,0,0,0,0
101748925,Dobrich,Bulgaria,Dobrich,27.839996,43.585052,0,0,0,0,0
101748927,Ajaccio,France,Corse,8.728294,41.927065,2,0,0,0,2
101748935,Aix-en-Provence,France,Provence-Alpes-Côte-d'Azur,5.449993,43.519991,2,0,0,0,2
101748979,Bordeaux,France,Aquitaine,-0.596959,44.851959,7,1,0,0,8
101748993,Annecy,France,Rhône-Alpes,6.11667,45.899975,2,0,0,0,2
101749003,Besançon,France,Franche-Comté,6.030009,47.229997,3,0,0,0,3
101749013,Bourges,France,Centre,2.399998,47.083727,3,0,0,0,3
101749017,Angers,France,Pays de la Loire,-0.53003,47.480008,8,0,0,0,8
101749133,Amiens,France,Picardie,2.300004,49.900377,4,0,0,0,4
101749137,Famagusta,Northern Cyprus,,33.95001,35.125025,0,0,0,0,0
101749139,Kyrenia,Northern Cyprus,,33.333004,35.325999,0,0,0,0,0
101749141,Nicosia,Cyprus,,33.366635,35.166677,0,0,0,0,0
101749145,Larnaka,Cyprus,Larnaca,33.635998,34.917003,0,0,0,0,0
101749147,Lemosos,Cyprus,Limassol,33.033322,34.675414,0,0,0,0,0
101749151,Odense,Denmark,Syddanmark,10.383335,55.400377,2,0,0,0,2
101749153,Vejle,Denmark,Syddanmark,9.534997,55.709001,2,0,0,0,2
101749155,Esbjerg,Denmark,Syddanmark,8.450016,55.467039,2,0,0,0,2
101749159,København,Denmark,Hovedstaden,12.56154,55.68051,0,0,0,0,0
101749163,Århus,Denmark,Midtjylland,10.210684,56.157204,2,0,0,0,2
101749169,Aalborg,Denmark,Nordjylland,9.916593,57.033714,2,0,0,0,2
101749199,Marseille,France,Provence-Alpes-Côte-d'Azur,5.373064,43.291925,2,0,0,0,2
101749209,Montpellier,France,Languedoc-Roussillon,3.869986,43.610399,2,0,0,0,2
101749211,Béziers,France,Languedoc-Roussillon,3.209974,43.350492,2,0,0,0,2
101749273,Nice,France,Provence-Alpes-Côte-d'Azur,7.263078,43.716964,2,0,0,0,2
101749287,Nîmes,France,Languedoc-Roussillon,4.350008,43.830385,2,0,0,0,2
101749307,Grenoble,France,Rhône-Alpes,5.720002,45.180381,2,0,0,0,2
101749431,Lyon,France,Rhône-Alpes,4.828085,45.771954,3,0,0,0,3
101749467,Clermont-Ferrand,France,Auvergne,3.080008,45.779982,3,0,0,0,3
101749501,Limoges,France,Limousin,1.249991,45.829979,5,0,0,0,5
101749503,La Rochelle,France,Poitou-Charentes,-1.149992,46.166651,8,1,0,0,9
101749549,Dijon,France,Bourgogne,5.030018,47.330404,3,0,0,0,3
101749573,Mulhouse,France,Alsace,7.34998,47.750405,2,0,0,0,2
101749589,Nantes,France,Pays de la Loire,-1.590017,47.210386,9,1,0,0,10
101749611,Le Mans,France,Pays de la Loire,0.099983,48.000415,7,0,0,0,7
101749615,Lorient,France,Bretagne,-3.366575,47.750405,16,3,0,0,19
101749919,Melun,France,Île-de-France,2.666648,48.533302,3,0,0,0,3
101750105,Metz,France,Lorraine,6.180026,49.120347,3,0,0,0,3
101750111,Brest,France,Bretagne,-4.495008,48.390443,20,3,0,0,23
101750135,Nancy,France,Lorraine,6.200024,48.683681,3,0,0,0,3
101750149,Caen,France,Basse-Normandie,-0.349989,49.183754,9,1,0,0,10
101750183,Le Havre,France,Haute-Normandie,0.10497,49.504974,7,1,0,0,8
101750223,Calais,France,Nord-Pas-de-Calais,1.833314,50.950416,6,0,0,0,6
101750277,Lille,France,Nord-Pas-de-Calais,3.078062,50.651915,3,0,0,0,3
101750297,Plymouth,United Kingdom,Plymouth,-4.159989,50.385386,18,3,0,0,21
101750305,Bournemouth,United Kingdom,Bournemouth,-1.90005,50.72999,12,2,0,0,14
101750307,Portsmouth,United Kingdom,Portsmouth,-1.080022,50.800348,12,1,0,0,13
101750367,London,United Kingdom,Westminster,-0.118668,51.501941,10,1,0,0,11
101750371,Southend-on-Sea,United Kingdom,Southend-on-Sea,0.719997,51.550018,8,1,0,0,9
101750379,Reading,United Kingdom,Oxfordshire,-0.980028,51.469971,9,2,0,0,11
101750383,Exeter,United Kingdom,Devon,-3.52995,50.700405,15,2,0,0,17
101750387,Bath,United Kingdom,Bath and North East Somerset,-2.350022,51.383749,12,2,0,0,14
101750389,Bristol,United Kingdom,Bristol,-2.583316,51.449998,13,2,0,0,15
101750401,Luton,United Kingdom,Luton,-0.420011,51.880359,9,2,0,0,11
101750431,Swansea,United Kingdom,Swansea,-3.950002,51.629987,17,2,0,0,19
101750439,Oxford,United Kingdom,Oxfordshire,-1.249986,51.770418,10,2,0,0,12
101750447,Ipswich,United Kingdom,Suffolk,1.169996,52.070348,8,1,0,0,9
101750449,Coventry,United Kingdom,West Midlands,-1.499997,52.420404,9,2,0,0,11
101750461,Peterborough,United Kingdom,Peterborough,-0.249995,52.58042,9,1,0,0,10
101750465,Cambridge,United Kingdom,Cambridgeshire,0.116623,52.200391,9,1,0,0,10
101750467,Birmingham,United Kingdom,West Midlands,-1.921943,52.47692,10,2,0,0,12
101750483,Norwich,United Kingdom,Norfolk,1.300013,52.630365,8,1,0,0,9
101750485,Leicester,United Kingdom,Leicester,-1.133249,52.629977,8,2,0,0,10
101750491,Nottingham,United Kingdom,Nottingham,-1.170017,52.970344,9,2,0,0,11
101750495,Stoke,United Kingdom,Stoke-on-Trent,-2.180007,53.000368,10,2,0,0,12
101750511,Chester,United Kingdom,Cheshire,-2.919987,53.20002,12,2,0,0,14
101750525,Manchester,United Kingdom,Manchester,-2.249933,53.502361,10,2,0,0,12
101750529,Sheffield,United Kingdom,South Yorkshire,-1.499997,53.366677,10,2,0,0,12
101750547,Liverpool,United Kingdom,Merseyside,-2.919944,53.417948,12,2,0,0,14
101750561,Kingston upon Hull,United Kingdom,Kingston upon Hull,-0.329991,53.750426,9,1,0,0,10
101750579,Leeds,United Kingdom,West Yorkshire,-1.581963,53.831953,9,2,0,0,11
101750581,Bradford,United Kingdom,West Yorkshire,-1.749981,53.800035,9,2,0,0,11
101750583,Blackpool,United Kingdom,Lancashire,-3.050005,53.830395,11,2,0,0,13
101750599,Middlesbrough,United Kingdom,Stockton-on-Tees,-1.230013,54.580375,9,1,0,0,10
101750611,Sunderland,United Kingdom,Tyne and Wear,-1.38003,54.920019,9,1,0,0,10
101750617,Newcastle,United Kingdom,Tyne and Wear,-1.601936,55.002321,10,1,0,0,11
101750619,Carlisle,United Kingdom,Cumbria,-2.929987,54.879995,11,2,0,0,13
101750629,Edinburgh,United Kingdom,Edinburgh,-3.219091,55.948328,13,0,0,0,13
101750635,Greenock,United Kingdom,Inverclyde,-4.750031,55.93329,16,1,0,0,17
101750639,Aberdeen,United Kingdom,Aberdeen,-2.079987,57.170398,12,0,0,0,12
101750641,Dundee,United Kingdom,Dundee,-3.000008,56.470389,13,0,0,0,13
101750645,Perpignan,France,Languedoc-Roussillon,2.899967,42.699989,2,0,0,0,2
101750657,Toulon,France,Provence-Alpes-Côte-d'Azur,5.918822,43.134187,2,0,0,0,2
101750691,Toulouse,France,Midi-Pyrénées,1.447981,43.621905,4,0,0,0,4
101750835,Saint-Étienne,France,Rhône-Alpes,4.380032,45.430391,3,0,0,0,3
101750881,Poitier,France,Poitou-Charentes,0.333277,46.583292,6,0,0,0,6
101750899,Tours,France,Centre,0.699947,47.380375,6,0,0,0,6
101750945,Orléans,France,Centre,1.900028,47.900421,4,0,0,0,4
101750981,Troyes,France,Champagne-Ardenne,4.083358,48.340394,3,0,0,0,3
101751113,Strasbourg,France,Alsace,7.750007,48.579966,2,0,0,0,2
101751119,Paris,France,Île-de-France,2.33139,48.868639,3,0,0,0,3
101751181,Rennes,France,Bretagne,-1.670012,48.100021,11,2,0,0,13
101751377,Reims,France,Champagne-Ardenne,4.029976,49.25039,3,0,0,0,3
101751447,Rouen,France,Haute-Normandie,1.079975,49.430405,7,0,0,0,7
101751641,York,United Kingdom,York,-1.080022,53.970387,8,2,0,0,10
101751659,Zagreb,Croatia,Grad Zagreb,15.999995,45.800007,0,0,0,0,0
101751673,Zalaegerszeg,Hungary,Zala,16.84,46.844001,0,0,0,0,0
101751681,Szeged,Hungary,Csongrád,20.150026,46.250393,0,0,0,0,0
101751685,Kecskemét,Hungary,Bács-Kiskun,19.700027,46.900043,0,0,0,0,0
101751693,Veszprém,Hungary,Veszprém,17.911,47.090997,0,0,0,0,0
101751697,Békéscsaba,Hungary,Békés,21.101005,46.672002,0,0,0,0,0
101751699,Székesfehérvár,Hungary,Fejér,18.408065,47.194676,0,0,0,0,0
101751703,Budapest,Hungary,Budapest,19.081375,47.501952,0,0,0,0,0
101751707,Tatabánya,Hungary,Komárom-Esztergom,18.433,47.549997,0,0,0,0,0
101751709,Szolnok,Hungary,Jász-Nagykun-Szolnok,20.179378,47.186356,0,0,0,0,0
101751711,Győr,Hungary,Gyor-Moson-Sopron,17.630024,47.700356,0,0,0,0,0
101751717,Debrecen,Hungary,Hajdú-Bihar,21.630039,47.53047,0,0,0,0,0
101751719,Eger,Hungary,Heves,20.383003,47.895003,0,0,0,0,0
101751721,Nyíregyháza,Hungary,Szabolcs-Szatmár-Bereg,21.718715,47.965327,0,0,0,0,0
101751725,Miskolc,Hungary,Borsod-Abaúj-Zemplén,20.780013,48.100409,0,0,0,0,0
101751727,Cork,Ireland,Cork,-8.495771,51.898601,37,3,0,0,40
101751733,Limerick,Ireland,Limerick,-8.62305,52.664704,33,2,1,0,36
101751737,Dublin,Ireland,Dublin,-6.250852,53.335007,25,2,1,0,28
101751743,Galway,Ireland,Galway,-9.048812,53.272393,33,2,1,0,36
101751751,Keflavík,Iceland,Suðurnes,-22.566592,64.016647,46,7,2,0,55
101751753,Reykjavík,Iceland,Suðurnes,-21.950015,64.150024,47,4,2,0,53
101751757,Akureyri,Iceland,Akureyri,-18.100017,65.666572,32,3,0,0,35
101751761,Koblenz,Germany,Rheinland-Pfalz,7.599991,50.350478,2,0,0,0,2
101751763,Bolzano,Italy,Trentino-Alto Adige,11.36002,46.500429,2,0,0,0,2
101751765,Luxembourg,Luxembourg,Luxembourg,6.130003,49.61166,3,0,0,0,3
101751767,Split,Croatia,Splitsko-Dalmatinska,16.469992,43.520404,0,0,0,0,0
101751769,Zadar,Croatia,Zadarska,15.262262,44.120135,0,0,0,0,0
101751771,Pula,Croatia,Istarska,13.848085,44.86872,0,0,0,0,0
101751773,Slavonski Brod,Croatia,Brodsko-Posavska,18.015582,45.160278,0,0,0,0,0
101751775,Rijeka,Croatia,Primorsko-Goranska,14.450012,45.329984,0,0,0,0,0
101751779,Osijek,Croatia,Osjecko-Baranjska,18.680038,45.550384,0,0,0,0,0
101751781,Daugavpils,Latvia,Daugavpils,26.509999,55.87996,0,0,0,0,0
101751783,Liepaga,Latvia,Liepaja,21.010025,56.509973,0,0,0,0,0
101751785,Jelgava,Latvia,Jelgava,23.712806,56.652704,0,0,0,0,0
101751789,Riga,Latvia,Riga,24.099965,56.950024,0,0,0,0,0
101751793,Chișinău,Moldova,Chisinau,28.857711,47.005024,0,0,0,0,0
101751797,Tiraspol,Moldova,Bender,29.639989,46.853095,0,0,0,0,0
101751799,Bălți,Moldova,Balti,27.905315,47.759086,0,0,0,0,0
101751803,Maastricht,Netherlands,Limburg,5.677003,50.852997,3,0,0,0,3
101751809,'s-Hertogenbosch,Netherlands,Noord-Brabant,5.316661,51.683337,3,0,0,0,3
101751819,Eindhoven,Netherlands,Noord-Brabant,5.500015,51.429973,3,0,0,0,3
101751827,Utrecht,Netherlands,Utrecht,5.120039,52.100346,3,0,0,0,3
101751843,Rotterdam,Netherlands,Zuid-Holland,4.478029,51.921915,3,0,0,0,3
101751857,Arnhem,Netherlands,Gelderland,5.923,51.987996,3,0,0,0,3
101751861,Zwolle,Netherlands,Overijssel,6.096997,52.524,3,0,0,0,3
101751879,Assen,Netherlands,Drenthe,6.550003,53.000001,3,0,0,0,3
101751893,Amsterdam,Netherlands,Noord-Holland,4.914694,52.351915,3,0,0,0,3
101751897,Haarlem,Netherlands,Noord-Holland,4.629991,52.380432,3,0,0,0,3
101751907,Leeuwarden,Netherlands,Friesland,5.783357,53.250379,3,0,0,0,3
101751909,Groningen,Netherlands,Groningen,6.580001,53.220407,3,0,0,0,3
101751915,Stavanger,Norway,Rogaland,5.680004,58.970004,4,0,0,0,4
101751919,Skien,Norway,Telemark,9.600024,59.19999,3,0,0,0,3
101751923,Bergen,Norway,Hordaland,5.324522,60.391002,4,0,0,0,4
101751925,Drammen,Norway,Buskerud,10.190737,59.757243,3,0,0,0,3
101751927,Trondheim,Norway,Sør-Trøndelag,10.416666,63.416658,1,0,0,0,1
101751929,Tromsø,Norway,Troms,18.992025,69.635076,0,0,0,0,0
101751931,Belfast,United Kingdom,Belfast,-5.960034,54.600012,20,1,1,0,22
101751941,Londonderry/Derry,United Kingdom,Derry,-7.333284,55.000375,23,2,1,0,26
101751943,Craiova,Romania,Dolj,23.825874,44.326272,0,0,0,0,0
101751945,Alexandria,Romania,Teleorman,25.286707,43.901631,0,0,0,0,0
101751947,Giurgiu,Romania,Giurgiu,25.84,43.929999,0,0,0,0,0
101751949,Bucharest,Romania,Bucharest,26.098001,44.435318,0,0,0,0,0
101751951,Drobeta-Turnu Severin,Romania,Mehedinti,22.665893,44.645891,0,0,0,0,0
101751953,Slatina,Romania,Olt,24.371002,44.434998,0,0,0,0,0
101751959,Târgu Jiu,Romania,Gorj,23.274001,45.045,0,0,0,0,0
101751963,Reșița,Romania,Caras-Severin,21.886509,45.296963,0,0,0,0,0
101751965,Constanța,Romania,Constanta,28.609974,44.202662,0,0,0,0,0
101751967,Târgoviște,Romania,Dâmbovita,25.459003,44.937999,0,0,0,0,0
101751969,Rimnicu Vilcea,Romania,Vâlcea,24.382999,45.109998,0,0,0,0,0
101751971,Pitești,Romania,Arges,24.875835,44.856318,0,0,0,0,0
101751973,Timișoara,Romania,Timis,21.223448,45.758821,0,0,0,0,0
101751977,Ploiești,Romania,Prahova,26.036488,44.946906,0,0,0,0,0
101751979,Brăila,Romania,Braila,27.969004,45.291996,0,0,0,0,0
101751981,Buzău,Romania,Buzau,26.806519,45.156506,0,0,0,0,0
101751983,Deva,Romania,Hunedoara,22.916674,45.883323,0,0,0,0,0
101751989,Tulcea,Romania,Constanta,28.796681,45.199346,0,0,0,0,0
101751991,Brașov,Romania,Brasov,25.60716,45.647535,0,0,0,0,0
101751997,Sibiu,Romania,Sibiu,24.137121,45.797113,0,0,0,0,0
101752003,Sfintu-Gheorghe,Romania,Covasna,25.793002,45.867996,0,0,0,0,0
101752005,Focșani,Romania,Vrancea,27.186547,45.696551,0,0,0,0,0
101752007,Galați,Romania,Galati,28.045874,45.455893,0,0,0,0,0
101752015,Tirgu Mures,Romania,Mures,24.557819,46.558203,0,0,0,0,0
101752017,Zalău,Romania,Salaj,23.063005,47.175003,0,0,0,0,0
101752019,Cluj-Napoca,Romania,Cluj,23.598446,46.788422,0,0,0,0,0
101752025,Oradea,Romania,Bihor,21.919995,47.049982,0,0,0,0,0
101752027,Vaslui,Romania,Vaslui,27.733339,46.633329,0,0,0,0,0
101752033,Piatra-Neamt,Romania,Neamt,26.382997,46.940004,0,0,0,0,0
101752035,Bistrița,Romania,Bistrita-Nasaud,24.513004,47.138004,0,0,0,0,0
101752037,Satu Mare,Romania,Satu Mare,22.885003,47.791998,0,0,0,0,0
101752039,Baia Mare,Romania,Maramures,23.579067,47.659454,0,0,0,0,0
101752045,Botoșani,Romania,Botosani,26.659654,47.748415,0,0,0,0,0
101752051,Trnava,Slovakia,Trnavský,17.6,48.366594,0,0,0,0,0
101752053,Banská Bystrica,Slovakia,Banskobystrický,19.149983,48.73329,0,0,0,0,0
101752055,Košice,Slovakia,Košický,21.25001,48.730448,0,0,0,0,0
101752063,Žilina,Slovakia,Žilinský,18.749388,49.219824,0,0,0,0,0
101752067,Prešov,Slovakia,Prešov,21.239365,48.999734,0,0,0,0,0
101752071,Maribor,Slovenia,Maribor,15.650042,46.540478,0,0,0,0,0
101752073,Ljubljana,Slovenia,Osrednjeslovenska,14.514969,46.055288,0,0,0,0,0
101752075,Funchal,Portugal,Madeira,-16.88004,32.649983,18,2,0,0,20
101752077,Setúbal,Portugal,Lisboa,-8.90001,38.52996,18,1,1,0,20
101752087,Lisbon,Portugal,Lisboa,-9.146812,38.724669,18,2,1,0,21
101752091,Coimbra,Portugal,Coimbra,-8.41668,40.200374,19,2,1,0,22
101752093,Porto,Portugal,Porto,-8.621947,41.151952,21,2,2,0,25
101752097,Braga,Portugal,Braga,-8.421331,41.554995,24,2,2,0,28
101752117,Kraków,Poland,Lesser Poland,19.958066,50.061925,0,0,0,0,0
101752127,Katowice,Poland,Silesian,19.020017,50.260381,0,0,0,0,0
101752141,Gliwice,Poland,Silesian,18.670013,50.330376,0,0,0,0,0
101752145,Rzeszów,Poland,Subcarpathian,22.000042,50.07047,0,0,0,0,0
101752149,Bytom,Poland,Silesian,18.909998,50.350039,0,0,0,0,0
101752159,Opole,Poland,Opole,17.93135,50.68498,0,0,0,0,0
101752177,Kielce,Poland,Swietokrzyskie,20.66002,50.890394,0,0,0,0,0
101752181,Wrocław,Poland,Lower Silesian,17.030009,51.110432,0,0,0,0,0
101752199,Lublin,Poland,Lublin,22.57272,51.250398,0,0,0,0,0
101752207,Zielona Góra,Poland,Lubusz,15.500025,51.950407,0,0,0,0,0
101752223,Poznań,Poland,Greater Poland,16.89994,52.405753,0,0,0,0,0
101752239,Inowrocław,Poland,Kuyavian-Pomeranian,18.249987,52.779942,0,0,0,0,0
101752243,Bydgoszcz,Poland,Kuyavian-Pomeranian,18.010001,53.120413,0,0,0,0,0
101752253,Grudziądz,Poland,Kuyavian-Pomeranian,18.750008,53.480391,0,0,0,0,0
101752255,Białystok,Poland,Podlachian,23.169996,53.150359,0,0,0,0,0
101752257,Olsztyn,Poland,Warmian-Masurian,20.480031,53.800035,0,0,0,0,0
101752259,Koszalin,Poland,West Pomeranian,16.183333,54.2,0,0,0,0,0
101752265,Ełk,Poland,Warmian-Masurian,22.349995,53.833702,0,0,0,0,0
101752267,Elbląg,Poland,Warmian-Masurian,19.402681,54.18996,0,0,0,0,0
101752271,Gdańsk,Poland,Pomeranian,18.64004,54.359975,0,0,0,0,0
101752275,Gdynia,Poland,Pomeranian,18.530021,54.520379,0,0,0,0,0
101752277,Helsingborg,Sweden,Skåne,12.700041,56.050492,0,0,0,0,0
101752283,Malmö,Sweden,Skåne,13.033302,55.583337,0,0,0,0,0
101752285,Halmstad,Sweden,Halland,12.855587,56.671772,0,0,0,0,0
101752287,Jönköping,Sweden,Jönköping,14.165016,57.771343,0,0,0,0,0
101752289,Norrköping,Sweden,Östergötland,16.178692,58.595427,0,0,0,0,0
101752291,Linköping,Sweden,Östergötland,15.62994,58.410012,0,0,0,0,0
101752293,Borås,Sweden,Västra Götaland,12.919976,57.730441,0,0,0,0,0
101752295,Göteborg,Sweden,Västra Götaland,12.000032,57.750001,0,0,0,0,0
101752301,Örebro,Sweden,Orebro,15.219991,59.280347,0,0,0,0,0
101752303,Västerås,Sweden,Västmanland,16.540013,59.630015,0,0,0,0,0
101752307,Stockholm,Sweden,Stockholm,18.095389,59.352706,0,0,0,0,0
101752311,Karlstad,Sweden,Värmland,13.499941,59.367137,0,0,0,0,0
101752313,Uppsala,Sweden,Uppsala,17.639998,59.860053,0,0,0,0,0
101752315,Gävle,Sweden,Gävleborg,17.166642,60.66698,0,0,0,0,0
101752319,Umeå,Sweden,Västerbotten,20.239994,63.829992,0,0,0,0,0
101752321,Volos,Greece,Thessalia,22.95001,39.36996,0,0,0,0,0
101752323,Larissa,Greece,Thessalia,22.420016,39.630409,0,0,0,0,0
101752325,Patra,Greece,Dytiki Ellada,21.729981,38.230004,0,0,0,0,0
101752327,Katerini,Greece,Kentriki Makedonia,22.502492,40.272334,0,0,0,0,0
101752331,Thessaloniki,Greece,Kentriki Makedonia,22.883055,40.698052,0,0,0,0,0
101752333,Ioanina,Greece,Ipeiros,20.850861,39.6679,0,0,0,0,0
101752337,Kavala,Greece,Anatoliki Makedonia kai Thraki,24.40176,40.941211,0,0,0,0,0
101752339,Iraklio,Greece,Kriti,25.130497,35.325013,0,0,0,0,0
101752341,Piraeus,Greece,Attiki,23.69999,37.950021,0,0,0,0,0
101752343,Hania,Greece,Kriti,24.015578,35.512211,0,0,0,0,0
101752345,Rodos,Greece,Notio Aigaio,28.222504,36.441224,0,0,0,0,0
101752347,Chalkida,Greece,Stereá Elláda,23.612398,38.463995,0,0,0,0,0
101752349,Seres,Greece,Kentriki Makedonia,23.549715,41.085979,0,0,0,0,0
101752423,Valletta,Malta,,14.514711,35.899733,0,0,0,0,0
101752471,Yalta,Russia,Crimea,34.159403,44.499311,0,0,0,0,0
101752473,Kerch,Russia,Crimea,36.488098,45.368509,0,0,0,0,0
101752477,Kamyanets-Podilskyy,Ukraine,Khmel'nyts'kyy,26.580899,48.684301,0,0,0,0,0
101752483,Lviv,Ukraine,L'viv,24.029996,49.83498,0,0,0,0,0
101752485,Bila Tserkva,Ukraine,Kiev,30.130915,49.774312,0,0,0,0,0
101752489,Kyiv,Ukraine,Kiev,30.514682,50.435313,0,0,0,0,0
101752495,Sumy,Ukraine,Sumy,34.780864,50.924293,0,0,0,0,0
101752501,Ragusa,Italy,Sicily,14.729995,36.930031,0,0,0,0,0
101752503,Siracusa,Italy,Sicily,15.289961,37.070359,0,0,0,0,0
101752509,Catania,Italy,Sicily,15.079999,37.499971,0,0,0,0,0
101752513,Marsala,Italy,Sicily,12.438662,37.805404,0,0,0,0,0
101752517,Palermo,Italy,Sicily,13.348081,38.126969,0,0,0,0,0
101752519,Messina,Italy,Sicily,15.549996,38.200471,0,0,0,0,0
101752521,Reggio di Calabria,Italy,Calabria,15.64136,38.114998,0,0,0,0,0
101752525,Catanzaro,Italy,Calabria,16.60001,38.900376,0,0,0,0,0
101752527,Crotone,Italy,Calabria,17.123337,39.083337,0,0,0,0,0
101752535,Lecce,Italy,Apulia,18.149993,40.36039,0,0,0,0,0
101752537,Salerno,Italy,Campania,14.769941,40.680397,0,0,0,0,0
101752539,Sassari,Italy,Sardegna,8.570009,40.730006,2,0,0,0,2
101752543,Taranto,Italy,Apulia,17.229997,40.508392,0,0,0,0,0
101752555,Naples,Italy,Campania,14.243066,40.841971,0,0,0,0,0
101752565,Brindisi,Italy,Apulia,17.930006,40.640348,0,0,0,0,0
101752567,Potenza,Italy,Basilicata,15.798997,40.642002,0,0,0,0,0
101752571,Bari,Italy,Apulia,16.872758,41.11422,0,0,0,0,0
101752579,Caserta,Italy,Campania,14.337357,41.05996,0,0,0,0,0
101752583,Benevento,Italy,Campania,14.749993,41.133702,0,0,0,0,0
101752585,Barletta,Italy,Apulia,16.270004,41.319996,0,0,0,0,0
101752601,Foggia,Italy,Apulia,15.55997,41.460478,0,0,0,0,0
101752607,Rome,Italy,Lazio,12.481313,41.897902,0,0,0,0,0
101752613,Pescara,Italy,Abruzzo,14.218656,42.455431,0,0,0,0,0
101752619,Livorno,Italy,Toscana,10.302275,43.551134,2,0,0,0,2
101752621,Perugia,Italy,Umbria,12.389983,43.110378,0,0,0,0,0
101752625,Ancona,Italy,Marche,13.499941,43.600374,0,0,0,0,0
101752627,Pisa,Italy,Toscana,10.400026,43.72047,2,0,0,0,2
101752629,Arezzo,Italy,Toscana,11.874975,43.461726,0,0,0,0,0
101752643,Florence,Italy,Toscana,11.25,43.780001,2,0,0,0,2
101752661,Ravenna,Italy,Emilia-Romagna,12.220019,44.420375,0,0,0,0,0
101752663,Genoa,Italy,Liguria,8.930039,44.409988,2,0,0,0,2
101752665,Bologna,Italy,Emilia-Romagna,11.340021,44.500422,2,0,0,0,2
101752669,Modena,Italy,Emilia-Romagna,10.919995,44.650025,2,0,0,0,2
101752673,Ferrara,Italy,Emilia-Romagna,11.609927,44.850427,2,0,0,0,2
